{"24": {"status": null, "city": "Lorem ipsum dolor sit ame", "updated": "2014-08-08 23:22:17.495000+00:00", "description": "Lorem ipsum dolor", "zip": "Lorem ipsum dolor sit amet, consectetur adipisicin", "created": "2014-08-08 23:22:17.495000+00:00", "ext": {}, "location_description": "Lorem ipsum dolor sit amet, consectetur adipisicing elit, sed do eiusmod tempor incidi", "long": 49243.1818181818, "email": "gvi@txx.por", "website": "http://ztzzcrowyzxhkv.rs", "phone": null, "state": "Lorem ipsum dolor sit amet, consectetur adipisicing elit,", "street": "Lorem ipsum dolor sit amet, consectetur a", "products": {"64": {"preparation": "Lorem ipsum d", "name": "Lorem ipsum dolor si"}, "17": {"preparation": "Lorem ipsum dolor si", "name": "Lorem ipsum dolor sit amet,"}}, "lat": -30142.7272727273, "contact_name": "Lorem ipsum dolor sit amet, consectetur adipisicing elit, sed do eiusmod tempor incididunt", "story": 80, "name": "Lorem ipsum dolor sit amet, consectetur adipisicing elit, sed do eiusm"}, "25": {"status": true, "city": "Lorem ipsum dolor sit amet, consectetur", "updated": "2014-08-08 23:22:17.501000+00:00", "description": "Lorem ipsum dolor", "zip": "Lorem ipsum dolor sit amet, consectetur adipisicing elit, sed do eiusmod tempor incididunt ut labo", "created": "2014-08-08 23:22:17.501000+00:00", "ext": {}, "location_description": "Lorem ipsum dolor sit amet, consectetur adipisicing elit, sed", "long": 33887.1818181818, "email": "lznqytvtxzhvrqqrysiytgi@fy.xok", "website": "http://gofvrnlbhlziia.za", "phone": null, "state": "Lorem ipsum dolor sit amet, consectetur adipisicing elit, sed do eiusmod tempor inc", "street": "Lorem ipsum dolor sit amet, consectetur adipis", "products": {}, "lat": 25513.9090909091, "contact_name": "Lorem ipsum dolor sit amet, consectetur adipisicing elit, sed do eiusmod tempor incididunt ut labore", "story": 8, "name": "Lorem ipsum dolor sit amet, consectet"}, "26": {"status": null, "city": "Lorem ipsum dolor s", "updated": "2014-08-08 23:22:17.506000+00:00", "description": "Lorem ipsum dolor sit amet, consectetur adipisicing elit, sed", "zip": "Lorem ipsum dolor sit amet, consectetur adipisicing elit, sed do eiusmod tempor incid", "created": "2014-08-08 23:22:17.506000+00:00", "ext": {}, "location_description": "Lorem ipsum dolor sit amet, consectetur", "long": -8228.36363636364, "email": "zsiy@oxqiwcfaedrsh.zst", "website": "http://dkfphuvnc.jc", "phone": null, "state": "Lorem ipsum dolor sit amet,", "street": "Lorem ipsum dolor si", "products": {"17": {"preparation": "Lorem ipsum dolor si", "name": "Lorem ipsum dolor sit amet,"}}, "lat": -8534.45454545455, "contact_name": "Lorem ipsum dolor sit amet, consectetur adipisicing elit", "story": 78, "name": "Lorem ipsu"}, "27": {"status": true, "city": "Lorem ipsum dolor si", "updated": "2014-08-08 23:22:17.513000+00:00", "description": "Lorem ipsum dolor sit ame", "zip": "Lorem ipsum dolor sit", "created": "2014-08-08 23:22:17.513000+00:00", "ext": {}, "location_description": "Lorem ipsum d", "long": 27241.4545454545, "email": "cakthqkqhhedsztu@ecarqu.emu", "website": "http://cdrjktn.doq", "phone": null, "state": "Lorem ipsum dolor sit amet, consectetur adipisic", "street": "Lorem ipsum dolor sit amet, consectetur adipisicing e", "products": {"7": {"preparation": "Lorem ipsum dolor sit ame", "name": "Lorem ipsum dolor sit amet, consectetur adipisicing elit, sed do eiusmod tempor incididunt ut"}}, "lat": 95596.5454545455, "contact_name": "Lorem ipsum dolor sit amet, co", "story": 8, "name": "Lorem ipsum dolor sit amet, co"}, "20": {"status": false, "city": "Lorem ipsum dolor sit amet, consectetur adipisici", "updated": "2014-08-08 23:22:17.470000+00:00", "description": "Lorem ipsum dolor sit a", "zip": "Lorem ipsum dolor sit amet, consectetur adipisicing elit, sed do", "created": "2014-08-08 23:22:17.470000+00:00", "ext": {}, "location_description": "Lorem ipsum dolor sit amet, consectetur adipisicing elit, sed do eiusmod tempor incididunt", "long": 36023.8181818182, "email": "ffxwqfajvcepbeyictkthvof@p.qll", "website": "http://yxdiihbh.syn", "phone": null, "state": "Lorem ipsum dolor sit amet, consectetur adipisicing elit, sed do", "street": "Lorem ipsum dolor sit amet, consectetur adipisicing elit, sed do eiusmod temp", "products": {"55": {"preparation": "Lorem ipsum dolor sit amet, consectetur adipisicing elit, s", "name": "Lorem ipsum dolor sit amet, consectetur adipisicing elit, sed do eiusmod tempor incididunt ut l"}, "15": {"preparation": "Lorem ipsum dolor sit amet, consectetur", "name": "Lorem ipsum dolor sit amet, consectetur adipisicing elit, s"}}, "lat": 49983.3636363636, "contact_name": "Lorem ipsum dolor sit amet, consectetur adipisicing elit, se", "story": 37, "name": "Lorem ipsum dolor sit amet, consectetur adipisicing elit"}, "21": {"status": null, "city": "Lorem ipsum dolor sit amet, consectetur adipisicing elit, sed do eiusmod tempor", "updated": "2014-08-08 23:22:17.477000+00:00", "description": "Lorem ipsum dolor sit ame", "zip": "Lorem ipsum dolor sit amet, consectetur adipisicing elit, sed do e", "created": "2014-08-08 23:22:17.476000+00:00", "ext": {}, "location_description": "Lorem ipsum dolor sit amet, consectetur adipisicing elit, sed do eiusmod tempor incididunt ut lab", "long": 59761.0, "email": "mpnipjxegpv@gzplfyzphi.tql", "website": "http://jgpnljyal.owi", "phone": null, "state": "Lorem ipsum dolor sit", "street": "Lorem ipsum dolor sit amet, consectetur adipisicing elit, sed do eiusmod tempor inc", "products": {"95": {"preparation": "Lorem ipsum dolor sit amet, conse", "name": "Lorem ipsum dolor sit amet,"}}, "lat": 45501.2727272727, "contact_name": "Lorem ipsu", "story": 40, "name": "Lorem ipsum dolor sit ame"}, "22": {"status": false, "city": "Lorem ipsum dolor sit amet, consectetur adi", "updated": "2014-08-08 23:22:17.483000+00:00", "description": "Lorem ipsum", "zip": "Lorem ipsum dolor sit amet, consectetur adipisicing elit, sed do eiusmod tempor", "created": "2014-08-08 23:22:17.483000+00:00", "ext": {}, "location_description": "Lorem ipsum dolor sit amet, consectetur adipisicing elit, sed do eiusmod tempor incididunt ut labo", "long": -63715.1818181818, "email": "dndsei@cysxbuovacdnb.mfe", "website": "http://ibrvoenanetr.sm", "phone": null, "state": "Lorem ipsum dolor sit amet, cons", "street": "Lorem ipsum dolor sit amet, consectetur adipi", "products": {"55": {"preparation": "Lorem ipsum dolor sit amet, consectetur adipisicing elit, s", "name": "Lorem ipsum dolor sit amet, consectetur adipisicing elit, sed do eiusmod tempor incididunt ut l"}}, "lat": -83981.8181818182, "contact_name": "Lorem ipsum dolor sit amet", "story": 69, "name": "Lorem ipsum dol"}, "23": {"status": null, "city": "Lorem ipsum dolor sit amet, consectet", "updated": "2014-08-08 23:22:17.489000+00:00", "description": "Lorem ipsum dolor sit amet, consectetur adipisicing", "zip": "Lorem ipsum dolor sit amet, consectetur a", "created": "2014-08-08 23:22:17.489000+00:00", "ext": {}, "location_description": "Lorem ipsum do", "long": -9227.72727272727, "email": "yvsmdmpxtvqcm@emgrnvvdgwkm.eyk", "website": "http://mi.yge", "phone": null, "state": "Lorem ipsum dolor sit amet, consectetur adipisicing elit, sed do eiusmod", "street": "Lorem ipsum dolor sit amet, consectetur adipisicing elit, sed do eiusmod tempor incididunt ut la", "products": {"17": {"preparation": "Lorem ipsum dolor si", "name": "Lorem ipsum dolor sit amet,"}}, "lat": 78150.3636363636, "contact_name": "Lorem ipsum dolor sit amet, consectetur adipisicing", "story": 57, "name": "Lorem ipsum dolor sit amet, consectetur adipisicing elit, sed do eiusmod tem"}, "28": {"status": null, "city": "Lorem ipsum dolor sit amet, consectetur adip", "updated": "2014-08-08 23:22:17.520000+00:00", "description": "Lorem ipsum dolor sit amet, consectetur adipisicing elit, sed do eiusmod tempor incididunt ut labore", "zip": "Lorem ipsum dolor sit amet, consectetur adipisicing elit, sed do eiusmod t", "created": "2014-08-08 23:22:17.520000+00:00", "ext": {}, "location_description": "Lorem ipsum dolor sit amet, consectetur adipisicing elit, sed do eiusmod tempor incididunt", "long": 79252.4545454545, "email": "jrrugyfcdcmxnj@w.jrm", "website": "http://paexrxxbvei.lsp", "phone": null, "state": "Lorem ipsum dolor sit amet, consectetur adipisicing eli", "street": "Lorem ipsum dolor sit amet, consectetur adipisicing elit, sed do eiusmod tempor incididunt ut labor", "products": {"81": {"preparation": "Lorem ipsum dolor sit ame", "name": "Lorem ipsum dolor sit amet, consectetur ad"}, "71": {"preparation": "Lorem ipsum dolor sit amet, consectetur adipisicing elit, se", "name": "Lorem ipsum dolor sit amet"}}, "lat": -3309.18181818182, "contact_name": "Lorem ipsum", "story": 46, "name": "Lorem ipsum dolor sit amet, consectetur adi"}, "29": {"status": null, "city": "Lorem ipsum dolor sit amet, consectetur adipisicing elit, sed do eiusmod temp", "updated": "2014-08-08 23:22:17.526000+00:00", "description": "Lorem ipsum dolor sit amet, consecte", "zip": "Lorem ipsum dolor sit amet, consectetur adipisicing elit, sed", "created": "2014-08-08 23:22:17.526000+00:00", "ext": {}, "location_description": "Lorem ipsum dolor sit amet, consectetur adipisicing elit, sed do eiusmod tempor incididu", "long": 9855.18181818182, "email": "fqsmvb@zrdvttffbpzbs.igt", "website": "http://otptqykoyhsrat.dpf", "phone": null, "state": "Lorem ipsum dolor sit amet, consectetur adipisicing elit, sed d", "street": "Lorem ipsum dolor sit amet, consectetur adipisicing elit, sed do eiu", "products": {}, "lat": 90060.0, "contact_name": "Lorem ipsum dolor sit amet, consectetur adipisicing elit, sed do eiusmod tempor inc", "story": 17, "name": "Lorem ipsum dolor sit amet, consec"}, "4": {"status": null, "city": "Lorem ipsum dolor sit amet, consectetur adipisicing elit, sed do eiusmod tempor incididunt u", "updated": "2014-08-08 23:22:17.358000+00:00", "description": "Lorem ipsum dolor sit amet, consectetur adipisicing elit, sed do eiusmod tempo", "zip": "Lorem ipsum dolor sit amet, consectetur adipisicing elit, sed do ei", "created": "2014-08-08 23:22:17.358000+00:00", "ext": {}, "location_description": "Lorem ipsum dolor sit amet, consectetur", "long": -90204.6363636364, "email": "xnbgvm@sgvwytv.rfe", "website": "http://kizs.aww", "phone": null, "state": "Lorem ipsum dolor sit amet, consectetur adipisicing elit, sed do eiusmod tempor incididunt ut la", "street": "Lorem ipsum dol", "products": {"57": {"preparation": "Lorem ipsum dolor sit amet, consectetur adipisicing eli", "name": "Lorem ipsum dolor sit amet"}}, "lat": -4293.54545454545, "contact_name": "Lorem ipsum dolor sit amet, consectetur adipisicing elit, sed d", "story": 31, "name": "Lorem ipsum dolor sit amet, consectetur adipisicing elit, sed"}, "8": {"status": false, "city": "Lorem ipsum", "updated": "2014-08-08 23:22:17.390000+00:00", "description": "Lorem ipsum dolor sit amet, consectetur adipisicing el", "zip": "Lorem ipsum dolor sit amet, consectetur adipisicing elit, sed do ei", "created": "2014-08-08 23:22:17.390000+00:00", "ext": {}, "location_description": "Lorem ipsum dolor sit a", "long": -67581.8181818182, "email": "qdlsjyfopuvpvzmpmhpdxj@tm.lcv", "website": "http://pzrisklztr.wd", "phone": null, "state": "Lorem ipsum dolor sit amet, consectetur adipisi", "street": "Lorem ipsum dolor sit amet, consectetur adipisicing elit, sed do eiusmod tempor incid", "products": {}, "lat": -10117.0, "contact_name": "Lorem ipsum dolor sit amet, consectetur adipisicing elit", "story": 76, "name": "Lorem ipsum dolor sit amet, consectetur adipisicing elit, sed do eiusmod tempor incididunt"}, "59": {"status": false, "city": "Lorem ipsum dolor sit amet, consectetur adipisicing elit", "updated": "2014-08-08 23:22:17.760000+00:00", "description": "Lorem ipsum dolor sit amet, consectetur adipisi", "zip": "Lorem ipsum dolor sit amet, consectetur adipisic", "created": "2014-08-08 23:22:17.760000+00:00", "ext": {}, "location_description": "Lorem ipsum dolor sit amet, consectetur a", "long": 6112.45454545455, "email": "q@tclppchns.znu", "website": "http://xxims.qt", "phone": null, "state": "Lorem ipsum dolor sit amet, consecte", "street": "Lorem ipsum dolor sit amet, consectetur adi", "products": {"40": {"preparation": "Lorem ipsum dolor sit amet, consectetur adipisicing elit, se", "name": "Lorem ipsum dolor sit amet, consec"}}, "lat": -9079.09090909091, "contact_name": "Lorem ipsum dolor sit amet, consectetur adipisicing elit, sed do eiusmod tempor incididunt ut", "story": 63, "name": "Lorem ipsum dolor sit amet, consectetur adipisicing elit, sed do eiusmod tempor in"}, "58": {"status": null, "city": "Lorem ipsum dolor sit amet,", "updated": "2014-08-08 23:22:17.751000+00:00", "description": "Lorem ipsum dolor sit amet, consectetur adipisicing elit, sed do eiusm", "zip": "Lorem ipsum dolor sit amet, consectetur adipisicing elit, sed do eiusmod t", "created": "2014-08-08 23:22:17.751000+00:00", "ext": {}, "location_description": "Lorem ipsum dolor sit am", "long": -19082.3636363636, "email": "zncuexpagpnaidzavggmx@bfu.dpf", "website": "http://hovero.yuz", "phone": null, "state": "Lorem ipsum dolor sit amet, consectetur adipisicing elit, sed do eiusmod tempor incidi", "street": "Lorem ipsum dolor sit amet, consectetur", "products": {"34": {"preparation": "Lorem ipsum dolor sit amet, consectetur adipisicing elit, sed do eiusmod tem", "name": "Lorem ipsum dolor sit amet, consectetur adipi"}}, "lat": 57541.0, "contact_name": "Lorem ipsum dolor sit amet, consectetur adipisicing elit, sed do eiusmod tempor incididunt u", "story": 100, "name": "Lorem ipsum dolor sit amet, consectetur adipisicing e"}, "55": {"status": null, "city": "Lorem ipsum dol", "updated": "2014-08-08 23:22:17.730000+00:00", "description": "Lorem ipsum dolor sit amet, con", "zip": "Lorem ipsum dolor sit amet, consectetur adipisicing elit, sed do eiusmod tempor", "created": "2014-08-08 23:22:17.730000+00:00", "ext": {}, "location_description": "Lorem ipsum dolor sit amet, consectetur a", "long": 98789.5454545455, "email": "ugsctsqhtxteguvnbm@gqjsm.nrd", "website": "http://pqexca.jm", "phone": null, "state": "Lorem ipsum dolor sit amet, consectetur adipisicing elit, sed do", "street": "Lorem ipsum d", "products": {}, "lat": 48246.7272727273, "contact_name": "Lorem ipsum dolor", "story": 43, "name": "Lorem ipsum dolor sit"}, "54": {"status": null, "city": "Lorem ipsum dolor s", "updated": "2014-08-08 23:22:17.721000+00:00", "description": "Lorem ipsum dolor sit amet, consectetur adipisicing elit, sed do ei", "zip": "Lorem ipsum dolor sit amet, consectetur adipisici", "created": "2014-08-08 23:22:17.721000+00:00", "ext": {}, "location_description": "Lorem ipsum dolor sit amet, consectetur adipisici", "long": -58773.0, "email": "znv@fx.rhx", "website": "http://jffnegwomdv.ffa", "phone": null, "state": "Lorem ipsum dolor si", "street": "Lorem ipsum dol", "products": {"60": {"preparation": "Lorem ipsum dolor sit amet, consectetur adipisicin", "name": "Lorem ipsum dolor sit amet, consectetur adipisicing elit, sed do eiusmod tempor incididunt ut labor"}}, "lat": -23039.1818181818, "contact_name": "Lorem ipsum dolor sit amet", "story": 93, "name": "Lorem ipsum dolor sit amet, consectetur adipisicing elit, sed d"}, "57": {"status": false, "city": "Lorem ipsum dolor sit amet, consectetur adipisicing elit, sed do eiusmod tempor", "updated": "2014-08-08 23:22:17.744000+00:00", "description": "Lorem ipsum dolor sit amet, consectetur adipisicing elit, sed do eiusmod", "zip": "Lorem ipsum dolor sit amet, consectetur adipisicing eli", "created": "2014-08-08 23:22:17.744000+00:00", "ext": {}, "location_description": "Lorem ipsum dolor sit amet, consectetur adipisi", "long": -67457.3636363636, "email": "t@mevekhjmwzjowsvxgn.ilb", "website": "http://r.bho", "phone": null, "state": "Lorem ipsum dolor sit amet, consectetur adipisicing elit, sed do eiu", "street": "Lorem ipsum dolor sit amet, consectetur adipisicing elit, sed do eiusmod tempor incididunt", "products": {"27": {"preparation": "Lorem ipsum dolor sit amet, consectetur adipisicing elit, sed", "name": "Lorem ipsum dolor sit amet, conse"}, "61": {"preparation": "Lorem ipsum dolor sit amet, consectetur adipisicin", "name": "Lorem ipsum dolor sit amet, consectetur adipisicing elit, sed do eiu"}}, "lat": -98542.3636363636, "contact_name": "Lorem ipsum dolor sit", "story": 52, "name": "Lorem ipsum dolor sit amet, consectetur adipisicing elit, sed do eiusmod temp"}, "56": {"status": true, "city": "Lorem ipsum dolor sit amet, consectetur adipisicing elit,", "updated": "2014-08-08 23:22:17.738000+00:00", "description": "Lorem ipsum dolor sit amet, consectetur adipisicing elit", "zip": "Lorem ipsum dolor sit amet, consectetur adipisicing elit, sed do eiusmod tempor incididunt ut lab", "created": "2014-08-08 23:22:17.737000+00:00", "ext": {}, "location_description": "Lorem ipsum dol", "long": -82477.2727272727, "email": "kxqqka@rxwzss.sva", "website": "http://vllveaqzoilcfl.ib", "phone": null, "state": "Lorem ipsum dolor sit amet, consectetur adipis", "street": "Lorem ipsum dolor sit amet, consectetur adipisicing elit, sed do eiusmod te", "products": {}, "lat": -64024.2727272727, "contact_name": "Lorem ipsum dolor", "story": 59, "name": "Lorem ipsum dolor sit amet, co"}, "51": {"status": null, "city": "Lorem ipsum dolor sit amet, consectetur adipisicing elit, sed do eiusmod tempo", "updated": "2014-08-08 23:22:17.699000+00:00", "description": "Lorem ipsum dolo", "zip": "Lorem ipsum dolor sit amet, consectetur adipisicing eli", "created": "2014-08-08 23:22:17.699000+00:00", "ext": {}, "location_description": "Lorem ipsum dolor sit amet,", "long": -40615.3636363636, "email": "avwmgquflddus@cexhmejxhu.viv", "website": "http://oiqorpmd.ejv", "phone": null, "state": "Lorem ipsum dolor sit amet, consectetur adipisicing elit", "street": "Lorem ipsum dolor sit amet,", "products": {"26": {"preparation": "Lorem ipsum dolor sit amet, consectetur adipisicing elit, sed d", "name": "Lorem ipsum dolor sit amet, consectetur a"}, "85": {"preparation": "Lorem ipsum dolor sit amet, consectetur adipisicing elit, sed do eiu", "name": "Lorem ipsum dolor sit amet, c"}, "39": {"preparation": "Lorem ipsum dolor sit amet, consectetur adipisicing elit,", "name": "Lorem ipsum dolor sit amet, consectetur adipisicing elit, sed do eiusmod tempor incididunt ut"}}, "lat": -65665.5454545455, "contact_name": "Lorem ipsum dolor sit amet, consectetur adipisicing elit, sed do eiusmod tempor incid", "story": 30, "name": "Lorem ipsum dolor sit amet, consectetur adipisicing elit, sed do eiusmod tempor incididunt ut l"}, "50": {"status": null, "city": "Lorem ipsum dolor sit amet, consectetur adipisicing", "updated": "2014-08-08 23:22:17.692000+00:00", "description": "Lorem ipsum dolor sit amet, consectetur adipisicing elit, sed do eiusmod tempor incididunt", "zip": "Lorem ipsum dolor sit amet, consectetur adipisicing elit, sed do eiusmod tempor incididunt ut labore", "created": "2014-08-08 23:22:17.692000+00:00", "ext": {}, "location_description": "Lorem ipsum dolor sit amet, consec", "long": -3053.18181818182, "email": "vakmlxtffqkdzt@vjsg.qgh", "website": "http://lowdfzmklzrbq.so", "phone": null, "state": "Lorem ipsum dolor sit amet, consectetur adipisicing elit, sed do eiusmod tempor incididunt ut", "street": "Lorem ipsum dolor sit amet, consectetur adipisicing elit, sed do eiusmod temp", "products": {"11": {"preparation": "Lorem ipsum dolor sit amet", "name": "Lorem ipsum dolor sit amet, consectetur adipisicing elit, sed do eiusmod t"}, "71": {"preparation": "Lorem ipsum dolor sit amet, consectetur adipisicing elit, se", "name": "Lorem ipsum dolor sit amet"}}, "lat": 24152.1818181818, "contact_name": "Lorem ipsum dolor sit amet, consectetur adipisicing elit, sed do eiusmod tempor incidi", "story": 96, "name": "Lorem ipsum dolor sit amet, consectetur adipisicing elit, sed d"}, "53": {"status": true, "city": "Lorem ipsum", "updated": "2014-08-08 23:22:17.715000+00:00", "description": "Lorem ipsum dolor sit amet, consectetur adipisicing elit, sed d", "zip": "Lorem ipsum dolor sit amet, consectetur adipisicing elit, sed d", "created": "2014-08-08 23:22:17.715000+00:00", "ext": {}, "location_description": "Lorem ipsum", "long": -27968.6363636364, "email": "klgsanuotstq@eurtlesknybth.vjj", "website": "http://w.luv", "phone": null, "state": "Lorem ipsum dolor sit amet, consectetur adipisicing elit, sed do eiusmod tempor incidid", "street": "Lorem ipsum dolor sit amet, consectet", "products": {"84": {"preparation": "Lorem ipsum dolor sit ame", "name": "Lorem ipsum dolor sit amet, consectetur adipisicing elit,"}}, "lat": 79636.9090909091, "contact_name": "Lorem ipsum dolor sit amet, consectetur adipisicing elit, sed do eiusmod tempor incididunt ut lab", "story": 14, "name": "Lorem ipsum dolor sit amet, consectetur adipisicing"}, "52": {"status": false, "city": "Lorem ipsum dolor sit amet, consectetur adipisicing elit, sed do eiusmo", "updated": "2014-08-08 23:22:17.707000+00:00", "description": "Lorem ipsum", "zip": "Lorem ipsum dolor sit amet, consectetur adipisicing elit, sed do eiusmo", "created": "2014-08-08 23:22:17.707000+00:00", "ext": {}, "location_description": "Lorem ipsum dolor sit amet, consectetur adipisicing elit, sed d", "long": 7248.72727272727, "email": "jxoa@xkmdjvmnrodvv.iyw", "website": "http://t.ux", "phone": null, "state": "Lorem ipsum dolor sit amet, consectetur adipisicing elit, sed do eiusmod tempo", "street": "Lorem ipsum dolor sit amet, consectetur adipisicing elit, sed do eiusm", "products": {"74": {"preparation": "Lorem ipsum dolor sit amet, consectetur adipisicing elit, sed do eiusmod tempor incididunt ut lab", "name": "Lorem ipsum dolor sit a"}, "38": {"preparation": "Lorem ipsum dolor sit amet, consect", "name": "Lorem ipsum dolor sit amet, consectetur adipisicing elit, sed"}}, "lat": 32057.4545454545, "contact_name": "Lorem ipsum dolor sit amet, consectetur adipisicing elit, sed do eiusmod tempor incididunt u", "story": 64, "name": "Lorem ipsum dolor sit amet, consectetur adipisicing elit, sed do eiusmod tempor incidi"}, "88": {"status": null, "city": "Lorem ipsum dolor sit amet, consectetur adipisicing elit, se", "updated": "2014-08-08 23:22:17.994000+00:00", "description": "Lorem ipsum dolor sit a", "zip": "Lorem ipsum dolor sit amet, consectetur a", "created": "2014-08-08 23:22:17.994000+00:00", "ext": {}, "location_description": "Lorem ipsum d", "long": -97196.5454545455, "email": "aaljy@hydlpbfbjgtwcitxihdg.vts", "website": "http://cfs.lbn", "phone": null, "state": "Lorem ipsum dolor sit amet, consectetur adipisicing elit, sed do eiusmod tempor i", "street": "Lorem ipsum dolor sit amet, consec", "products": {}, "lat": -75238.5454545455, "contact_name": "Lorem ipsum do", "story": 54, "name": "Lorem ipsum dolor sit amet, consectetur adipisicing elit"}, "89": {"status": null, "city": "Lorem ipsum dolor sit amet, consectetur", "updated": "2014-08-08 23:22:18.005000+00:00", "description": "Lorem ipsum dolor sit", "zip": "Lorem ipsum dolor sit amet, consectetur adipisicing elit, sed do eiusmod tempor inci", "created": "2014-08-08 23:22:18.005000+00:00", "ext": {}, "location_description": "Lorem ipsum dolor sit amet, consectetur adipisicing elit, sed do eiusmod tempor incid", "long": -51475.1818181818, "email": "jcrvcxoaydwthunw@zzyomo.tfb", "website": "http://qeh.us", "phone": null, "state": "Lorem ipsum dolor sit amet, consectetur adipis", "street": "Lorem ipsum dolor sit amet, consectetur adipisicing elit, sed do", "products": {"63": {"preparation": "Lorem ipsum dolor sit amet, consectetur adipisicing elit, sed do eiusmod tempor inc", "name": "Lorem ipsum dolor sit amet,"}}, "lat": -57346.7272727273, "contact_name": "Lorem ipsum dolor sit amet, consectetur adipisicing elit, sed do eiusmod tempor inc", "story": 83, "name": "Lorem ipsum dolor sit amet, consectetur adipisicing elit, sed do eiusmod tempor in"}, "82": {"status": true, "city": "Lorem ipsum dolor sit amet, consectetur adipisicing elit, sed do eiusmod", "updated": "2014-08-08 23:22:17.942000+00:00", "description": "Lorem ipsum dolor sit amet, consectetur adipisicing", "zip": "Lorem ipsum dolor sit amet, consectetur adipisicing elit", "created": "2014-08-08 23:22:17.942000+00:00", "ext": {}, "location_description": "Lorem ipsum dolor sit amet, consectetur adipisicing elit, sed do eiusmod tempo", "long": 55154.2727272727, "email": "gkwnsomxuwcfq@omosaxcdl.dcs", "website": "http://ld.oab", "phone": null, "state": "Lorem ipsum dolor sit amet, consectetur adipisicing elit, sed do eiusmod tempor inc", "street": "Lorem ipsu", "products": {"20": {"preparation": "Lorem ipsum dolor sit amet, consectetur adipisicing elit", "name": "Lorem ipsum dolor sit amet, consectetu"}, "23": {"preparation": "Lorem ipsum dolor sit amet, consectetur adipisicing elit, sed do eiusmod", "name": "Lorem ipsum dolor sit amet, consectetur adipisicing elit, sed do eiusmod tempor incididunt ut labor"}}, "lat": 99783.3636363636, "contact_name": "Lorem ipsum dolor sit amet, consectetur adipisicing elit,", "story": 90, "name": "Lorem ipsum dolor sit amet, consectet"}, "83": {"status": false, "city": "Lorem ipsum dolor sit amet, consectetur adip", "updated": "2014-08-08 23:22:17.950000+00:00", "description": "Lorem ipsum dolor sit amet, consectetur", "zip": "Lorem ipsum dolor sit amet, consectetur adipisicing elit, s", "created": "2014-08-08 23:22:17.950000+00:00", "ext": {}, "location_description": "Lorem ipsu", "long": 84357.4545454545, "email": "kzmqbf@ikpguyowenorrhjj.jgd", "website": "http://mryjcvybmhswer.vub", "phone": null, "state": "Lorem ipsum dolor sit amet, consectetur adip", "street": "Lorem ipsum dolor sit amet, consectetur adipisicing elit, sed do eiusmod temp", "products": {}, "lat": 48485.0, "contact_name": "Lorem ipsum dolor sit amet, consectetur adipisicing elit, sed d", "story": 13, "name": "Lorem ipsum dolor sit amet, consectetur adip"}, "80": {"status": false, "city": "Lorem ipsum dolor sit amet, consectetur adipisicing elit, sed do eiusmod tempor incididunt ut labo", "updated": "2014-08-08 23:22:17.924000+00:00", "description": "Lorem ipsum dolor sit amet, consectetur", "zip": "Lorem ipsum dolor sit amet, consectetur adipisicing elit, sed do eiusmod temp", "created": "2014-08-08 23:22:17.924000+00:00", "ext": {}, "location_description": "Lorem ipsum dolor sit", "long": -92169.0, "email": "wfydyiauhyeyovghh@yjvssi.fij", "website": "http://yxbkumyazhnou.asx", "phone": null, "state": "Lorem ipsum dolor sit amet, consectetur adi", "street": "Lorem ipsum dolor sit amet, consectetur adipisicing elit, sed do eiusmod tempor incidid", "products": {}, "lat": -25386.2727272727, "contact_name": "Lorem ipsum dolor sit amet, consectetur adipisic", "story": 2, "name": "Lorem ipsum dolor sit amet, consec"}, "81": {"status": null, "city": "Lorem ipsum dolor sit amet, consectetur adipisicing elit, sed do eiusmod tem", "updated": "2014-08-08 23:22:17.931000+00:00", "description": "Lorem ipsum dolor sit amet, consectetur adipisicing elit, sed do eiusmod tempor incididunt ut lab", "zip": "Lorem ipsum dolor sit amet, consectetur adipisicing elit, sed do eiusmod te", "created": "2014-08-08 23:22:17.931000+00:00", "ext": {}, "location_description": "Lorem ipsum dolor sit amet, consectetur adipisicing elit, sed do eiusmod tempo", "long": -31335.1818181818, "email": "hrwszrysencwkfkelz@nybluso.qui", "website": "http://kynpveg.bi", "phone": null, "state": "Lorem ipsum dolor sit amet, consectetur adipisicing elit, sed do eiusmod t", "street": "Lorem ipsum dolor sit amet, consectetur adipisicing elit, sed do eius", "products": {}, "lat": 59273.8181818182, "contact_name": "Lorem ipsum dolor sit amet, consectetur adipisi", "story": 52, "name": "Lorem ipsum dolor sit amet, consectet"}, "86": {"status": false, "city": "Lorem ipsum dolor sit amet, consectetur adipisicing elit, sed do ei", "updated": "2014-08-08 23:22:17.977000+00:00", "description": "Lorem ipsum dolor sit amet, consectetur adipisicing elit, sed do eiusmod tempor", "zip": "Lorem ipsum dolor sit amet, consectetur adipisicing elit, sed do eiusmod tempor incidid", "created": "2014-08-08 23:22:17.977000+00:00", "ext": {}, "location_description": "Lorem ipsum dolor sit amet, consectetur adipisicing elit, sed do eiusmod tem", "long": -28687.1818181818, "email": "f@fxrgnnsrghuiwtkzilhaabf.kqx", "website": "http://muuqqonkvl.vh", "phone": null, "state": "Lorem ipsum dolor sit amet, consectetur adip", "street": "Lorem ipsum dolor sit amet, consectetur adipisicing elit, sed do eius", "products": {}, "lat": -77179.1818181818, "contact_name": "Lorem ipsum dolor sit amet,", "story": 51, "name": "Lorem ipsum dolor sit amet, consect"}, "87": {"status": null, "city": "Lorem ipsum dolor sit amet, consectetur adipisicing e", "updated": "2014-08-08 23:22:17.985000+00:00", "description": "Lorem ipsum dolor sit amet, consectetur adi", "zip": "Lorem ipsum dolor sit amet, consectetur adipisicing elit, sed do eiusmod t", "created": "2014-08-08 23:22:17.985000+00:00", "ext": {}, "location_description": "Lorem ipsum dolor sit amet, consectetur adipisicing elit, sed do eiusmod tempor incididunt ut labor", "long": -21366.1818181818, "email": "qdl@bmucwnucqvelcnbf.fnm", "website": "http://xgrr.rr", "phone": null, "state": "Lorem ipsum dolor sit amet, consectetur adipisicing elit, sed do eiusmod tempor incididunt u", "street": "Lorem ipsum dolor sit amet, consectetur adipisicing elit, sed do eiusmod tempor incididunt ut", "products": {}, "lat": -10488.8181818182, "contact_name": "Lorem ipsum dolor sit amet, consectetur adipisicing elit, sed do eiusmod tempor inci", "story": 30, "name": "Lorem ipsum dolor sit amet, consectetur adipisicing elit, sed"}, "84": {"status": null, "city": "Lorem ipsum dolor sit amet, consectetur adipisicing elit, sed do e", "updated": "2014-08-08 23:22:17.958000+00:00", "description": "Lorem ipsum dolor sit amet, consectetur adipisicing elit, sed do eiusmod tempor incididunt ut labor", "zip": "Lorem ipsum dolor sit amet, consectetur adipisicing elit, sed do eiusmod tempor incididunt ut", "created": "2014-08-08 23:22:17.958000+00:00", "ext": {}, "location_description": "Lorem ipsum dolor sit amet, consectetur adipisicing elit, sed do eiusmod temp", "long": -7386.09090909091, "email": "pcagbtdsqhzezdvazvnkaejr@a.ljy", "website": "http://hbgdcysypaeub.rkv", "phone": null, "state": "Lorem ipsum dolor sit amet, consectetur adipisicing elit, sed do eiusmod tempor incididunt ut la", "street": "Lorem ipsum do", "products": {}, "lat": 50445.1818181818, "contact_name": "Lorem ipsum", "story": 50, "name": "Lorem ipsum dolo"}, "85": {"status": false, "city": "Lorem ipsum dolor sit amet, consectetur adipisicing elit, sed do", "updated": "2014-08-08 23:22:17.966000+00:00", "description": "Lorem ipsum dolor sit amet, consectetur adipisicing elit, sed do eiusmod te", "zip": "Lorem ipsum dolor sit amet, consectetur a", "created": "2014-08-08 23:22:17.966000+00:00", "ext": {}, "location_description": "Lorem ipsum dolor s", "long": -60316.4545454545, "email": "dgawbjxh@qf.bav", "website": "http://okbsvo.fh", "phone": null, "state": "Lorem ipsum dolor sit amet, consectetur adipisicing elit, sed do eiusmod tem", "street": "Lorem ipsum dolor sit amet, consectetur", "products": {}, "lat": 6377.81818181818, "contact_name": "Lorem ipsum dolor sit amet, consectetur adipisicing elit, sed do eiusmod tempor incididunt u", "story": 23, "name": "Lorem ipsum dolor sit amet, consectetur adipisicing elit, sed do eiusmod temp"}, "3": {"status": null, "city": "Lorem ipsum do", "updated": "2014-08-08 23:22:17.352000+00:00", "description": "Lorem ipsum dolor sit amet,", "zip": "Lorem ipsum dolor sit amet, consectetur adipisicing elit, sed do eiusmod temp", "created": "2014-08-08 23:22:17.352000+00:00", "ext": {}, "location_description": "Lorem ipsum dolor sit amet, consectetur adipisicing elit, sed do eiusmod", "long": -70257.1818181818, "email": "ofxdwff@jerbfj.pke", "website": "http://rfzfnhax.vz", "phone": null, "state": "Lorem ipsum dolor sit amet, consectetur adi", "street": "Lorem ipsum dolor sit amet, consectetur adipisicing eli", "products": {"31": {"preparation": "Lorem ipsum dolor sit amet, consectetur adipisicing elit, sed do eiusmod tem", "name": "Lorem ipsum dol"}}, "lat": 45370.5454545455, "contact_name": "Lorem ipsum", "story": 57, "name": "Lorem ipsum dolor sit amet, consectetur adipisicing elit, se"}, "7": {"status": null, "city": "Lorem ipsum dolor sit amet, consectetur adipisicing elit, sed do eiusmod tempor incididu", "updated": "2014-08-08 23:22:17.382000+00:00", "description": "Lorem ipsum dolor sit amet, consectetur adipisicing elit, sed", "zip": "Lorem ipsum", "created": "2014-08-08 23:22:17.382000+00:00", "ext": {}, "location_description": "Lorem ipsum dolor sit amet, consectetur adipisicing elit, sed do eiusmod tempor incididunt ut", "long": 71184.1818181818, "email": "hzxdwyefqomfjvnqsu@pjug.wdz", "website": "http://fv.liw", "phone": null, "state": "Lorem ipsum dolor sit a", "street": "Lorem ipsum dolor sit amet, consectetur adipisicing elit, sed do eiusmod tempor incididunt ut labo", "products": {"32": {"preparation": "Lorem ipsum dolor sit amet, consectetur adipisicing e", "name": "Lorem ipsum dolor sit amet, consectetur adipisicing elit, sed do eiusmod tempor"}, "83": {"preparation": "Lorem ipsum dolor sit amet, consectetur adipisicing e", "name": "Lorem ipsum dolor sit amet, consectetur adipi"}}, "lat": -13631.1818181818, "contact_name": "Lorem ipsum dolor sit amet, consectetur a", "story": 88, "name": "Lorem ipsum dolor sit amet, consectetur adipisicing elit, sed do eiusmod tempor incididun"}, "100": {"status": false, "city": "Lorem ipsum dolor sit amet, consectetur adipisicing elit, se", "updated": "2014-08-08 23:22:18.101000+00:00", "description": "Lorem ipsum dolor sit amet, consectetur adipisicing elit,", "zip": "Lorem ipsum", "created": "2014-08-08 23:22:18.101000+00:00", "ext": {}, "location_description": "Lorem ipsum dolor sit amet, conse", "long": -91549.0909090909, "email": "ocsjq@quhpuxwedmetllxaeh.jdt", "website": "http://uhqq.yim", "phone": null, "state": "Lorem ipsum dolor sit amet, consectetur adipisicing elit, s", "street": "Lorem ipsum dolor sit amet, consectetur adipisici", "products": {"62": {"preparation": "Lorem ipsum dolor sit amet, consectetur adipisicing elit, sed do e", "name": "Lorem ipsum dolor sit amet"}, "38": {"preparation": "Lorem ipsum dolor sit amet, consect", "name": "Lorem ipsum dolor sit amet, consectetur adipisicing elit, sed"}}, "lat": 27482.4545454545, "contact_name": "Lorem ipsum dolor sit amet, consectetur adipisicing", "story": 31, "name": "Lorem ipsum dolor sit amet, consectetur adipisicing"}, "39": {"status": null, "city": "Lorem ipsum dolor sit amet, consectetur adipisicing el", "updated": "2014-08-08 23:22:17.613000+00:00", "description": "Lorem ipsum", "zip": "Lorem ipsum dolor sit amet, consectetur adipisicing elit, sed do eiusmod tempor incididunt ut la", "created": "2014-08-08 23:22:17.613000+00:00", "ext": {}, "location_description": "Lorem ipsum dolor sit amet, consectetur adipisicing elit,", "long": -87537.2727272727, "email": "dqxi@yyyvtmxdqljihremknkkr.oax", "website": "http://eiqdrsapzmpqhz.sie", "phone": null, "state": "Lorem ipsum dolor sit amet, consectetur adipi", "street": "Lorem ipsum dolor sit amet, consectetur adipisicing elit, sed do eiusmod tempor incidid", "products": {}, "lat": 37963.4545454545, "contact_name": "Lorem ipsum dolor", "story": 41, "name": "Lorem ipsum dolor sit amet, consectetur adipisicing"}, "38": {"status": true, "city": "Lorem ipsum dolor sit amet, consectetur adipisicing elit, sed do eiusmod tempor incididunt ut labore", "updated": "2014-08-08 23:22:17.605000+00:00", "description": "Lorem ipsum dolor sit", "zip": "Lorem ipsum dolor sit amet, consectetur adipisicing elit, sed do", "created": "2014-08-08 23:22:17.605000+00:00", "ext": {}, "location_description": "Lorem ipsum dolor sit amet, consectetu", "long": -81404.3636363636, "email": "hqqm@ydxrrqkyjwnqy.kiq", "website": "http://roj.zrx", "phone": null, "state": "Lorem ipsum dolor sit amet, consectetur adipisicing elit, sed do eiusmod tempor incididunt ut l", "street": "Lorem ipsum dolor sit amet, consectet", "products": {"42": {"preparation": "Lorem ipsum dolor", "name": "Lorem ipsum dolor sit amet, consectetur adipisicing elit, sed do eiusmod tempor incididunt ut labore"}}, "lat": -61147.4545454545, "contact_name": "Lorem ipsum dolor sit amet, consectetur adipisicing elit, sed do eiusmod tempor i", "story": 87, "name": "Lorem ipsum do"}, "33": {"status": false, "city": "Lorem ipsum dolor", "updated": "2014-08-08 23:22:17.564000+00:00", "description": "Lorem ipsum dolor sit amet, consectetur adipisicing elit, sed do eiusmod tempor inc", "zip": "Lorem ipsum dolor sit amet, consectetur adipisicin", "created": "2014-08-08 23:22:17.564000+00:00", "ext": {}, "location_description": "Lorem ipsum dolor sit amet, consectetur adipisicing elit, sed do eiusmod tempor inc", "long": -81505.8181818182, "email": "uengizoxidsbhugclk@vmvl.hmp", "website": "http://olnurysjizkow.ekq", "phone": null, "state": "Lorem ipsum dolor sit amet, consectetur adipisicing elit, sed do eiusmod tempor incidid", "street": "Lorem ipsum dolor sit amet,", "products": {"30": {"preparation": "Lorem ipsum dolor s", "name": "Lorem ipsum"}}, "lat": 53276.6363636364, "contact_name": "Lorem ipsum dolor", "story": 65, "name": "Lorem ipsum dolor sit amet, consectetur adipisicin"}, "32": {"status": true, "city": "Lorem ipsum dolor sit amet, consectetur adipisic", "updated": "2014-08-08 23:22:17.556000+00:00", "description": "Lorem ipsum dolor sit amet, consec", "zip": "Lorem ipsum dolor sit amet, consectetur adipisicing elit, sed do eiusmod tempor in", "created": "2014-08-08 23:22:17.556000+00:00", "ext": {}, "location_description": "Lorem ipsum dolor sit amet, consectetur adipisicing elit, sed do eiusmod temp", "long": 4555.63636363636, "email": "eeswdy@po.rwr", "website": "http://xaly.nvd", "phone": null, "state": "Lorem ipsum", "street": "Lorem ipsum dolor sit amet, consectetur adipisicing elit, sed do eiusmod tempor incididunt ut", "products": {"28": {"preparation": "Lorem ipsum dolor sit amet, consectetur adipisicing elit, sed do eiusmod tempor inci", "name": "Lorem ipsum dolor sit amet, consectetur adipisicing elit, sed do eiusmod tempor incididunt ut labor"}, "62": {"preparation": "Lorem ipsum dolor sit amet, consectetur adipisicing elit, sed do e", "name": "Lorem ipsum dolor sit amet"}}, "lat": 86208.3636363636, "contact_name": "Lorem ipsum dolor sit amet, consectetur adipisicing elit, sed do eiusmod temp", "story": 5, "name": "Lorem ipsum dolor sit amet, consectetur adipisicing elit, sed do eiusmo"}, "31": {"status": false, "city": "Lorem ipsum dolor s", "updated": "2014-08-08 23:22:17.547000+00:00", "description": "Lorem ipsum dolor sit amet, consectetur adipisicing elit, sed do eiusmod tempor incididun", "zip": "Lorem ipsum dolor sit amet, consectetur adipisicing el", "created": "2014-08-08 23:22:17.547000+00:00", "ext": {}, "location_description": "Lorem ipsum dolor sit amet, consectetur adipisicing elit, sed do eiusmod tempor i", "long": -19646.1818181818, "email": "iiaqslajqjrlaqlsjfhr@waeu.exf", "website": "http://ghcyypknzq.yhc", "phone": null, "state": "Lorem ipsum dolor sit amet, consectetur adipisicing elit, sed do eiusmod tempor incidid", "street": "Lorem ipsum dolor sit amet, consectetur adipisicing", "products": {"44": {"preparation": "Lorem ipsum dolor sit amet, consectetur adipisicing elit, sed do eiusmod tempor", "name": "Lorem ipsum dolor sit"}}, "lat": -28354.8181818182, "contact_name": "Lorem ipsum dolor sit amet, consectetur adipi", "story": 83, "name": "Lorem ipsum dolor sit amet, consectetur adipisicing elit, sed do eiusm"}, "30": {"status": null, "city": "Lorem ipsum dolor sit amet,", "updated": "2014-08-08 23:22:17.534000+00:00", "description": "Lorem ipsum dolor sit", "zip": "Lorem ipsum dolor sit amet, consectetur adipisicing elit, sed do eiusm", "created": "2014-08-08 23:22:17.534000+00:00", "ext": {}, "location_description": "Lorem ipsum dolor sit amet, cons", "long": -74017.4545454545, "email": "vzcpmhcxvbpqaboeygwq@gchb.yzs", "website": "http://galmzzp.zp", "phone": null, "state": "Lorem ipsum dolor sit amet, consectetur adipisicing eli", "street": "Lorem ipsum dolor sit am", "products": {}, "lat": 41260.4545454545, "contact_name": "Lorem ipsum dolor sit amet, consectetur adipisicing elit, sed do eiu", "story": 94, "name": "Lorem ipsum dolor sit amet, consectetur adipisicing elit, sed do"}, "37": {"status": null, "city": "Lorem ipsum dolor sit amet, consectetur adipisicing elit, sed do eiusmod tempor in", "updated": "2014-08-08 23:22:17.597000+00:00", "description": "Lorem ipsum dolor sit a", "zip": "Lorem ipsu", "created": "2014-08-08 23:22:17.597000+00:00", "ext": {}, "location_description": "Lorem ipsum dolor sit amet, cons", "long": 20033.0909090909, "email": "cavfbaedprzrpnmuyhi@a.otv", "website": "http://v.fn", "phone": null, "state": "Lorem ipsum dolor sit amet, consectetur adipisicing eli", "street": "Lorem ipsum dolor sit amet, consectetur adipisicing elit, sed do eiusmod tempor incididu", "products": {"76": {"preparation": "Lorem ipsum dolor sit amet, consectetur adipisicing elit, sed do eiusmod tempor", "name": "Lorem ipsum dolor sit amet, consectetur adipisici"}, "68": {"preparation": "Lorem ipsum dolor sit amet, consectetur", "name": "Lorem ipsum"}}, "lat": 72844.3636363636, "contact_name": "Lorem ipsum dolor sit amet, consectetur adipisi", "story": 57, "name": "Lorem ipsum dolor sit a"}, "36": {"status": false, "city": "Lorem ipsum dolor sit amet, consectetur adipisicing elit, sed do eiusmod tempor incidid", "updated": "2014-08-08 23:22:17.590000+00:00", "description": "Lorem ipsum dolor sit amet, consectetur adipisicing elit, sed", "zip": "Lorem ipsum dolor sit amet, consectetur adipisicing elit, sed do eiusmod tempor incididunt ut", "created": "2014-08-08 23:22:17.590000+00:00", "ext": {}, "location_description": "Lorem ipsum dolor sit amet, consectetur adipisicing elit, sed do eiusmod tempor incididunt u", "long": -14577.7272727273, "email": "aoqeauzrydkbzj@qxbm.lth", "website": "http://qccdrjnssfamebj.gs", "phone": null, "state": "Lorem ipsum dolor sit amet, consectetur adipisicing elit, sed do eiusmod tempor incididunt", "street": "Lorem ipsum dolor sit amet, consectetur adipisicing elit, sed d", "products": {"64": {"preparation": "Lorem ipsum d", "name": "Lorem ipsum dolor si"}}, "lat": 14979.9090909091, "contact_name": "Lorem ipsum dolor sit amet, consectetur adipisicing elit, sed do", "story": 24, "name": "Lorem ipsum dolor sit amet, consectetur adipisicing elit, sed do eiusmod te"}, "35": {"status": false, "city": "Lorem ipsum dolor sit amet, consect", "updated": "2014-08-08 23:22:17.580000+00:00", "description": "Lorem ipsum dolor sit amet, consectetur adipisicing elit, sed", "zip": "Lorem ipsum dolor sit amet, c", "created": "2014-08-08 23:22:17.580000+00:00", "ext": {}, "location_description": "Lorem ipsum dolor sit amet, consectetur adipisicing elit, sed do eiusmod", "long": -30215.3636363636, "email": "rdfuauguqtdoblyyq@kd.akk", "website": "http://hwliqrg.ye", "phone": null, "state": "Lorem ipsum dolor sit amet, cons", "street": "Lorem ipsum dolor sit amet, consectetur adipis", "products": {"5": {"preparation": "Lorem ipsum dolor sit amet, consectetur adipisicing elit, sed do eiusmod tempor in", "name": "Lorem ipsum dolor sit amet, consectetur adipisicing elit, sed do eiusmod tempor incidid"}}, "lat": -6162.81818181818, "contact_name": "Lorem ipsum dolor sit amet, consectetur adipisicing elit, sed do eiusmod tempo", "story": 7, "name": "Lorem ipsum dolor sit amet, consectetur adipisicing elit, sed do eiusmod tempor incididunt ut labore"}, "34": {"status": false, "city": "Lorem ipsum dolor sit amet, consectetur adi", "updated": "2014-08-08 23:22:17.573000+00:00", "description": "Lorem ipsum dolor sit amet, consectetur adipisi", "zip": "Lorem ipsum dolor sit", "created": "2014-08-08 23:22:17.573000+00:00", "ext": {}, "location_description": "Lorem ipsum dolor sit amet, consectetur adipi", "long": 86650.8181818182, "email": "jjralgzdmanmyrr@jkbekmepxn.piq", "website": "http://c.nu", "phone": null, "state": "Lorem ipsum dolor sit amet, consectetur adipisicing elit, sed do eiusmod tempor incididunt ut labor", "street": "Lorem ipsum dolor sit amet, consectetur adipisicing elit, sed do eiusmod temp", "products": {"36": {"preparation": "Lorem ipsum dolor sit amet, consectetur adi", "name": "Lorem ipsum dol"}, "85": {"preparation": "Lorem ipsum dolor sit amet, consectetur adipisicing elit, sed do eiu", "name": "Lorem ipsum dolor sit amet, c"}, "79": {"preparation": "Lorem ipsum dolor sit amet, consectetur adipisicing elit, sed do eiusm", "name": "Lorem ipsum dolor sit amet, consectetur adipisicing elit, sed do eiusmod tempor"}}, "lat": -47196.0909090909, "contact_name": "Lorem ipsum dolor sit amet, co", "story": 53, "name": "Lorem ipsum dolor sit amet, consectetur adipisicing elit, sed do eiusmo"}, "60": {"status": true, "city": "Lorem ipsum dolor sit", "updated": "2014-08-08 23:22:17.766000+00:00", "description": "Lorem ipsum dolor sit amet, consectetur adipisicing elit, s", "zip": "Lorem ipsum dolor sit amet, consectetur adipisicing elit, sed do eiusmod tempor incididunt ut labor", "created": "2014-08-08 23:22:17.766000+00:00", "ext": {}, "location_description": "Lorem ipsum dolor", "long": -92981.7272727273, "email": "alfkvymmismv@k.xrw", "website": "http://bua.uxb", "phone": null, "state": "Lorem ipsum dolor sit amet, consectetur adipisicing elit, sed d", "street": "Lorem ipsum dolor sit amet, consectetur adipisicing elit, sed do eiusmod tempor in", "products": {"27": {"preparation": "Lorem ipsum dolor sit amet, consectetur adipisicing elit, sed", "name": "Lorem ipsum dolor sit amet, conse"}, "77": {"preparation": "Lorem ipsum dolo", "name": "Lorem ipsum dolor sit amet, consectetur adipisicing elit, sed do eiusmod tempor incididunt ut"}}, "lat": 75980.6363636364, "contact_name": "Lorem ipsum dolor sit amet, c", "story": 86, "name": "Lorem ipsum dolor sit amet, consectetur adipisi"}, "61": {"status": true, "city": "Lorem ipsum dolor sit amet, consectetur adipisicing elit, sed do eiusmod tempor incididunt ut", "updated": "2014-08-08 23:22:17.774000+00:00", "description": "Lorem ipsum dolor sit amet, consectetur adipisicing elit, sed do eiusmod tempor incididunt ut la", "zip": "Lorem ipsum dolor sit amet, consectetur adipisicing el", "created": "2014-08-08 23:22:17.774000+00:00", "ext": {}, "location_description": "Lorem ipsum dolor sit", "long": 86394.6363636364, "email": "ukdxjcjixvgtxmw@zgdnbfxigt.fny", "website": "http://xxzibzfevobh.hv", "phone": null, "state": "Lorem ipsum dolor sit am", "street": "Lorem ipsum dolor sit amet, consectetur adipisicing elit, sed do eiusmod tem", "products": {}, "lat": 78862.7272727273, "contact_name": "Lorem ipsum dolor sit amet, consectetur adipisicing elit, sed do eiusmod t", "story": 72, "name": "Lorem ipsum"}, "62": {"status": false, "city": "Lorem ipsum dolor sit amet, consectetur", "updated": "2014-08-08 23:22:17.780000+00:00", "description": "Lorem ipsum dolor sit amet, consectetur adipisicing elit, sed do eiusmod t", "zip": "Lorem ipsum dolor sit amet, consectetur ad", "created": "2014-08-08 23:22:17.780000+00:00", "ext": {}, "location_description": "Lorem ipsum dolor sit amet, consectetur adipisicing elit, sed do eius", "long": 66802.0, "email": "htmtnaqzu@uneniuvlmaz.flt", "website": "http://p.dl", "phone": null, "state": "Lorem ipsum dolor sit amet, consectetur adipisicing elit, sed", "street": "Lorem ipsum dolor sit amet, consectetur adipisi", "products": {"13": {"preparation": "Lorem ipsum dolor s", "name": "Lorem ipsum dolor sit amet, consectetur adipisicing elit, sed do eiusmod tempor incididunt ut la"}, "37": {"preparation": "Lorem ipsum dolor sit", "name": "Lorem ipsum do"}}, "lat": -31221.0, "contact_name": "Lorem ipsum dolor sit amet, consectetur adipisicing elit, sed do eiusmod tempor incididunt ut l", "story": 72, "name": "Lorem ipsum dolor sit amet"}, "63": {"status": null, "city": "Lorem ipsum dolor sit amet, consec", "updated": "2014-08-08 23:22:17.789000+00:00", "description": "Lorem ipsum dolor sit amet, consectetur adipisicing elit, sed do eiusmod tempor incidid", "zip": "Lorem ipsum dolor sit amet", "created": "2014-08-08 23:22:17.789000+00:00", "ext": {}, "location_description": "Lorem ipsum dolor sit amet, consectetur adipisicing", "long": -90349.9090909091, "email": "tf@hiw.hzx", "website": "http://nuzdtm.lfq", "phone": null, "state": "Lorem ipsum dolor sit amet, consectetur adipisicing elit, sed do", "street": "Lorem ipsum dolor sit amet, consectetur adipisicing elit, sed do eius", "products": {"88": {"preparation": "Lorem ipsum dolor sit amet, consectetur adipisicing elit, sed do", "name": "Lorem ipsum dolor sit amet, consectetur ad"}}, "lat": -34595.0, "contact_name": "Lorem ipsum dolor sit amet, consectetur adipisicing elit, sed do eiusmod tempor incididunt u", "story": 21, "name": "Lorem ipsum dolor sit amet, consectetur adipisicing eli"}, "64": {"status": null, "city": "Lorem ipsum dolor sit amet, consectetur adipisicing elit, sed do eiusmod", "updated": "2014-08-08 23:22:17.796000+00:00", "description": "Lorem ipsum dolor sit amet, consectetur adipisicing", "zip": "Lorem ipsum dolor sit amet, consectetur adipisicing elit, sed do eiusmod tempor incididu", "created": "2014-08-08 23:22:17.796000+00:00", "ext": {}, "location_description": "Lorem ipsum dolor sit amet, consectetur adipisicing elit, sed do eiusmod tempor incidid", "long": -64647.3636363636, "email": "auerrlizlsgrmf@cuawsspaee.lmb", "website": "http://qswtoz.xwo", "phone": null, "state": "Lorem ipsum dolor sit amet, consectetur adipisicing elit, sed do eiusmod tempor", "street": "Lorem ipsum dolor sit amet, consectetur adipis", "products": {"59": {"preparation": "Lorem ipsum dolor sit ame", "name": "Lorem ipsum dolor"}}, "lat": -14621.1818181818, "contact_name": "Lorem ipsum dolor", "story": 8, "name": "Lorem ipsum dolor sit amet, consectetur adipisicing elit, sed do eiusmod tempor incidi"}, "65": {"status": false, "city": "Lorem ipsum dolor sit am", "updated": "2014-08-08 23:22:17.802000+00:00", "description": "Lorem ipsum dolor sit ame", "zip": "Lorem ipsum dolor sit amet, consectetur adipisicing elit, sed do eiusmod tempor incididunt", "created": "2014-08-08 23:22:17.802000+00:00", "ext": {}, "location_description": "Lorem ipsum dolor sit amet, consectetur adipisicing elit, sed do eiusmod tempo", "long": -63601.0909090909, "email": "goow@ljezubng.tsg", "website": "http://dvgquacoejz.kk", "phone": null, "state": "Lorem ipsum dolor sit amet, cons", "street": "Lorem ipsum dolor sit amet, consectetur adipisicing elit, sed do eiusmod tempor incididunt u", "products": {"78": {"preparation": "Lorem ipsum dolor sit amet, consectetur adipisicing elit, sed do eiusmod tempor", "name": "Lorem ipsum dolor sit amet, consecte"}}, "lat": -88368.8181818182, "contact_name": "Lorem ipsum dolor sit amet, consectetur adipisicing elit, s", "story": 91, "name": "Lorem ipsum dolor sit a"}, "66": {"status": false, "city": "Lorem ipsum dolor sit amet, consectetur adipisici", "updated": "2014-08-08 23:22:17.809000+00:00", "description": "Lorem ipsum dolor si", "zip": "Lorem ipsum dolor sit amet, consectetur adipisicing elit, sed do eiusmod", "created": "2014-08-08 23:22:17.809000+00:00", "ext": {}, "location_description": "Lorem ipsum dolor sit amet, consectetur adipisicing elit, sed do eius", "long": 95574.3636363636, "email": "zmqmeqxg@fhh.jgd", "website": "http://zpydyfbmix.qk", "phone": null, "state": "Lorem ipsum dolor sit ame", "street": "Lorem ipsum dolor sit amet, consectetur adipisicing elit, sed do eiusmod tempor incididunt ut labo", "products": {"14": {"preparation": "Lorem ipsum dolor sit amet, consectetur adipisicing elit, sed do", "name": "Lorem ipsum dolor sit amet, consectetur adipisicing elit, sed do eiusmod tempor incididunt ut lab"}}, "lat": -84875.7272727273, "contact_name": "Lorem ipsum dolo", "story": 40, "name": "Lorem ipsum dolor sit amet, consectetur adipisicing elit, sed do eiusmod tempor incididunt"}, "67": {"status": null, "city": "Lorem ipsum dolor sit amet, consectetur adipisicing elit, sed do eiusmod tempor incididunt", "updated": "2014-08-08 23:22:17.815000+00:00", "description": "Lorem ipsum dolor", "zip": "Lorem ipsum dol", "created": "2014-08-08 23:22:17.815000+00:00", "ext": {}, "location_description": "Lorem ipsum dolor si", "long": -59398.5454545455, "email": "koszlio@xntsltvvunmb.asc", "website": "http://myqjsrtlcf.udu", "phone": null, "state": "Lorem ipsum dolor sit amet", "street": "Lorem ipsum dolor sit amet, consectetur adipisicing elit, sed do", "products": {"70": {"preparation": "Lorem ipsum dolor sit amet, consectetur adip", "name": "Lorem ipsum dolor sit amet, consectetur adipisicing elit, sed do eiusmod tempor inc"}}, "lat": 56809.9090909091, "contact_name": "Lorem ipsum dolor sit ame", "story": 16, "name": "Lorem ipsum dolor sit amet, consectetur adipisicing elit, sed do eiusmod t"}, "68": {"status": false, "city": "Lorem ipsum dolor sit amet, consectetur adipisicing elit", "updated": "2014-08-08 23:22:17.823000+00:00", "description": "Lorem ipsum dolor sit amet, consectetur adipisicing elit, sed do eiusmod tempor incididunt ut labo", "zip": "Lorem ipsum dolor sit am", "created": "2014-08-08 23:22:17.823000+00:00", "ext": {}, "location_description": "Lorem ipsum dolor sit amet, consectetur adipisicing elit, sed do eiusmod tempor incididun", "long": 47663.4545454545, "email": "thzfmwpqpdmanepquxotrafc@b.btu", "website": "http://jlqqmucdbm.ulr", "phone": null, "state": "Lorem ipsum dolor sit amet, consectetur adipisicing elit, sed", "street": "Lorem ipsum dolor", "products": {}, "lat": 81782.8181818182, "contact_name": "Lorem ipsum dolor sit amet, consec", "story": 21, "name": "Lorem ipsum dolor sit amet, consec"}, "69": {"status": true, "city": "Lorem ipsum", "updated": "2014-08-08 23:22:17.830000+00:00", "description": "Lorem ipsum dolo", "zip": "Lorem ipsum dolor sit amet, c", "created": "2014-08-08 23:22:17.830000+00:00", "ext": {}, "location_description": "Lorem ipsum dolor sit amet, consecte", "long": 57015.5454545455, "email": "slqruvmkguhdlimpfdxv@loo.sdq", "website": "http://tfhjxbnec.dr", "phone": null, "state": "Lorem ipsum", "street": "Lorem ipsum dolor sit amet, consectetur adipisicing elit, sed do eiusmod tempor incididunt ut", "products": {"6": {"preparation": "Lorem ipsum dolor sit amet, consectetur adipisicing elit, sed d", "name": "Lorem ipsum dolor sit amet, consectetur adipisicing elit, sed do eiusmod tempor incididunt ut labor"}}, "lat": 73862.7272727273, "contact_name": "Lorem ipsum dolor sit amet, consectetur ad", "story": 100, "name": "Lorem ipsum"}, "2": {"status": null, "city": "Lorem ipsum dolor sit amet, consectetur adipisicing elit, sed do eiusmod", "updated": "2014-08-08 23:22:17.344000+00:00", "description": "Lorem ipsum dolor sit amet, consectetur adipisicing elit, s", "zip": "Lorem ipsum dolor sit amet, consectetur adipisicing elit, sed d", "created": "2014-08-08 23:22:17.343000+00:00", "ext": {}, "location_description": "Lorem ipsum dolor sit amet, consectetur adipisicing elit, sed do e", "long": 54357.0909090909, "email": "owpcazahruu@se.bms", "website": "http://hbnazcexxh.ym", "phone": null, "state": "Lorem ipsum dolor si", "street": "Lorem ipsum dolor sit amet, consectetur adipisicing elit, sed do eiusmod", "products": {}, "lat": -27247.0909090909, "contact_name": "Lorem ipsum dolor sit amet, conse", "story": 34, "name": "Lorem ipsum dolor sit amet, consectetur adipisicing elit, sed do eiusmod te"}, "6": {"status": false, "city": "Lorem ipsum dolor sit amet, consectetur adipisicing elit, se", "updated": "2014-08-08 23:22:17.373000+00:00", "description": "Lorem ipsum dolor sit amet, consectetur", "zip": "Lorem ipsum dolor sit amet, consectetur adipisicing el", "created": "2014-08-08 23:22:17.373000+00:00", "ext": {}, "location_description": "Lorem ipsum dolor sit", "long": -65413.0, "email": "fsdvnpwldsr@dglmuhyulmmihf.efw", "website": "http://qigsyqqycnxyca.nw", "phone": null, "state": "Lorem ipsum", "street": "Lorem ipsum dolor sit amet, consectetur adipisicing elit,", "products": {}, "lat": -27228.2727272727, "contact_name": "Lorem ipsum", "story": 68, "name": "Lorem ipsum dolor sit amet, consectetur ad"}, "99": {"status": null, "city": "Lorem ipsum dolor sit amet, consectetur adipisicing elit, sed do eiusmod tempor incididunt ut labore", "updated": "2014-08-08 23:22:18.092000+00:00", "description": "Lorem ipsum dolor sit amet", "zip": "Lorem ipsum dolor sit amet, consectetur adipisicing elit, sed do eiu", "created": "2014-08-08 23:22:18.092000+00:00", "ext": {}, "location_description": "Lorem ipsum dolor sit amet, consectetur adipisicing elit, sed do eiusmod tempo", "long": 90027.3636363636, "email": "uor@ggjegrvxfbbavynidwwvur.diq", "website": "http://yfk.yq", "phone": null, "state": "Lorem ipsum dolor sit amet, consectetur adipisicing", "street": "Lorem ipsum dolor sit amet, consectetur adipisicing elit, sed do eiusmod tempor in", "products": {"66": {"preparation": "Lorem ipsum", "name": "Lorem ipsum dol"}}, "lat": 16365.3636363636, "contact_name": "Lorem ipsum dolor sit amet, consectetur adipisici", "story": 64, "name": "Lorem ipsum dolor sit amet, consectetur adipisicing elit, sed do eiusmod tempor incididunt ut labore"}, "98": {"status": null, "city": "Lorem ipsum dolor sit amet, consectetur adipisicing elit, sed do eiusmod tempor incididunt ut l", "updated": "2014-08-08 23:22:18.084000+00:00", "description": "Lorem ipsum dolor sit amet, conse", "zip": "Lorem ipsum dolor sit amet, consectetur adipisicing elit,", "created": "2014-08-08 23:22:18.084000+00:00", "ext": {}, "location_description": "Lorem ipsum dolor sit amet, consectetur adipisicing elit, sed do eiusmod tempor incididunt ut labo", "long": -15835.2727272727, "email": "jswzpavrbjpclwxf@hapygdvyt.fvo", "website": "http://dxbrt.ir", "phone": null, "state": "Lorem ipsum dolor sit amet, consectetur adipisicing", "street": "Lorem ipsum dolor sit amet, consectetur adipisicing elit, sed do eiusmod tempor incid", "products": {}, "lat": -23078.0, "contact_name": "Lorem ipsum dolor sit amet, consectetur adipisicing elit, sed do", "story": 71, "name": "Lorem ipsum dolor sit amet, consectetur adipisicing elit, sed do eiusmod temp"}, "91": {"status": true, "city": "Lorem ipsum dolor sit amet, consectetur adipisicing elit,", "updated": "2014-08-08 23:22:18.021000+00:00", "description": "Lorem ipsum dolor sit amet, consectetur adipisicing elit, sed do eiusmod tempor incididunt ut labore", "zip": "Lorem ipsum dolor sit a", "created": "2014-08-08 23:22:18.021000+00:00", "ext": {}, "location_description": "Lorem ipsum dolo", "long": -18772.2727272727, "email": "kr@qpb.bde", "website": "http://vzhlkyekt.iia", "phone": null, "state": "Lorem ipsum dolor sit amet, consectetur adip", "street": "Lorem ipsum dolor sit amet, consectetur adipisicin", "products": {}, "lat": -22271.4545454545, "contact_name": "Lorem ipsum dolor sit amet, consectetur adipisicing elit, sed do eiusmod tempor incidid", "story": 4, "name": "Lorem ipsum dolor"}, "90": {"status": true, "city": "Lorem ipsum dolor sit amet, consecte", "updated": "2014-08-08 23:22:18.014000+00:00", "description": "Lorem ipsum dolor sit amet, consectetur adipisicing elit, sed do eiusmo", "zip": "Lorem ipsum dolor sit amet, consectetur adipisicing elit, sed d", "created": "2014-08-08 23:22:18.014000+00:00", "ext": {}, "location_description": "Lorem ipsum dolor sit amet, consectetur adipisicing elit, sed do eiusmod te", "long": -71493.0, "email": "uqgxyxlkrv@ivhbojhpmibetch.jzo", "website": "http://btwmngkyen.ljt", "phone": null, "state": "Lorem ipsum dolor sit amet, consectetur adipisicin", "street": "Lorem ipsum dolor si", "products": {"96": {"preparation": "Lorem ipsum dolor sit amet, consectetur adipisicin", "name": "Lorem ipsum dolor sit"}, "25": {"preparation": "Lorem ipsum dolor sit amet, consectetur adi", "name": "Lorem ipsum dolor sit amet,"}, "60": {"preparation": "Lorem ipsum dolor sit amet, consectetur adipisicin", "name": "Lorem ipsum dolor sit amet, consectetur adipisicing elit, sed do eiusmod tempor incididunt ut labor"}}, "lat": -75394.4545454545, "contact_name": "Lorem ipsum dolor sit amet, consectetur adipisicing elit, sed do eiusmod tempor", "story": 83, "name": "Lorem ipsum dolo"}, "93": {"status": false, "city": "Lorem ipsum dolor sit amet, consectetur adipisicing elit", "updated": "2014-08-08 23:22:18.038000+00:00", "description": "Lorem ipsum dolor sit amet, consectetur adipisicing elit, sed do eiusmod tempor incididunt ut l", "zip": "Lorem ipsum dolor sit amet, consectetur adipisicing elit", "created": "2014-08-08 23:22:18.038000+00:00", "ext": {}, "location_description": "Lorem ipsum dolor sit amet, consectetur adipisicing elit, sed do eiusmod tempor incididunt ut la", "long": -75062.8181818182, "email": "zjjotytlyuqdtebgo@veppab.lub", "website": "http://mgtctrinav.gkq", "phone": null, "state": "Lorem ipsum dolor sit amet, consectetur adipisicing elit, sed do ei", "street": "Lorem ipsum dolor sit amet, consectetur adipisicing elit, sed do eiusmod tempor inc", "products": {"52": {"preparation": "Lorem ipsum dolor sit amet, consectetur adipisicing elit, sed do e", "name": "Lorem ipsum dolor s"}}, "lat": -6737.09090909091, "contact_name": "Lorem ipsum dolor sit amet, consectetur adipisicing elit, sed", "story": 56, "name": "Lorem ipsum dolor"}, "92": {"status": true, "city": "Lorem ipsum dolor sit amet, consectetur adipisicing elit, sed do eiusmod tempo", "updated": "2014-08-08 23:22:18.028000+00:00", "description": "Lorem ipsum", "zip": "Lorem ipsum dolor sit amet, cons", "created": "2014-08-08 23:22:18.028000+00:00", "ext": {}, "location_description": "Lorem ipsum dolor sit amet, consectetur adipisicing elit, sed do eiusmod tempor incididunt ut labore", "long": -64837.4545454545, "email": "dnucftnabmpaeqriqtmghh@brl.vgb", "website": "http://dkkjvdoxeitmvsj.bi", "phone": null, "state": "Lorem ipsum dolor sit amet, consectetur adipisicing", "street": "Lorem ipsum dolor", "products": {}, "lat": -52479.3636363636, "contact_name": "Lorem ipsum dolor sit amet, consectetur adipisicing elit, sed do eiusmod tempor incididunt ut", "story": 58, "name": "Lorem ipsum dolor sit amet, consectetur adipisicing elit, s"}, "95": {"status": null, "city": "Lorem ipsum dolor sit amet, consectetur", "updated": "2014-08-08 23:22:18.059000+00:00", "description": "Lorem ipsum dolor sit amet, consectetur adipisicing elit, sed do", "zip": "Lorem ipsum dolor sit a", "created": "2014-08-08 23:22:18.059000+00:00", "ext": {}, "location_description": "Lorem ipsum dolor sit amet, consectetur adipisicing elit, sed do eiu", "long": -58031.2727272727, "email": "glyqkfoorgswrfjjsixyltgj@y.tnb", "website": "http://yjfyuhtudijxxz.rc", "phone": null, "state": "Lorem ipsum dolor sit amet, consectetur adipisicing elit, sed do eiusmod tempor incididun", "street": "Lorem ipsum dolor sit amet,", "products": {"34": {"preparation": "Lorem ipsum dolor sit amet, consectetur adipisicing elit, sed do eiusmod tem", "name": "Lorem ipsum dolor sit amet, consectetur adipi"}}, "lat": -48223.4545454545, "contact_name": "Lorem ipsum dolor sit amet, consectetur adipisici", "story": 39, "name": "Lorem ipsum dolor sit amet, consectetur adipisicing elit, sed do eiusmod tempor incididunt ut la"}, "94": {"status": false, "city": "Lorem ipsum dolor sit amet, c", "updated": "2014-08-08 23:22:18.050000+00:00", "description": "Lorem ipsum dolor sit amet, consectetur adipisicing elit, sed do eiusmod tempor", "zip": "Lorem ipsum dolor sit amet, consectetur adipisicing elit, sed do eiusmod tempor", "created": "2014-08-08 23:22:18.050000+00:00", "ext": {}, "location_description": "Lorem ipsum dolor sit amet, consectetur adipisicing eli", "long": -14044.8181818182, "email": "hjgggdjsikjm@rfjepyavadtkf.rix", "website": "http://wfjjuuulrlehqpp.dn", "phone": null, "state": "Lorem ipsum dolor sit amet, consectetur adipisicing elit, sed d", "street": "Lorem ipsum dolor sit amet, consectetur adipisicing elit, sed do eiusmod tempor inc", "products": {}, "lat": 61299.3636363636, "contact_name": "Lorem ipsum dolor sit", "story": 72, "name": "Lorem ipsum dolor sit amet, consectetur adipisicing elit, sed do eiusmod tempor incididunt ut lab"}, "97": {"status": null, "city": "Lorem ipsum d", "updated": "2014-08-08 23:22:18.077000+00:00", "description": "Lorem ipsum dolor sit amet, conse", "zip": "Lorem ipsum dolor sit amet, consectetur adipisicing elit, sed do eiusmod temp", "created": "2014-08-08 23:22:18.077000+00:00", "ext": {}, "location_description": "Lorem ipsum dolor sit amet, conse", "long": 52267.9090909091, "email": "wjwudjg@leoprfvynkmmgf.pvg", "website": "http://c.wc", "phone": null, "state": "Lorem ipsum dolor sit amet, consectetur adipisicing elit, sed", "street": "Lorem ipsum d", "products": {"55": {"preparation": "Lorem ipsum dolor sit amet, consectetur adipisicing elit, s", "name": "Lorem ipsum dolor sit amet, consectetur adipisicing elit, sed do eiusmod tempor incididunt ut l"}}, "lat": 38303.9090909091, "contact_name": "Lorem ipsum dolor sit amet, consectetur adipisicing elit, sed do e", "story": 3, "name": "Lorem ipsum d"}, "96": {"status": null, "city": "Lorem ipsum dolor sit amet, consectetur adipisicing elit, sed do", "updated": "2014-08-08 23:22:18.068000+00:00", "description": "Lorem ipsum dolor sit amet, consectetur adipisicing elit, sed do eiusmod tempor inc", "zip": "Lorem ipsum dolor sit amet, consectetur adipisicing elit, sed do eiusmod tempor", "created": "2014-08-08 23:22:18.068000+00:00", "ext": {}, "location_description": "Lorem ipsum dolor sit amet, consectetur adipisicing e", "long": -61604.8181818182, "email": "hbbsjcpw@psow.vnb", "website": "http://qgvvaswldo.af", "phone": null, "state": "Lorem ipsum dolor sit amet, c", "street": "Lorem ipsum dolor sit amet, consectetur adipisicing elit, sed do eiusmod tempor incidi", "products": {"91": {"preparation": "Lorem ipsum dolor sit amet, consectetur adipisicing elit, sed do eiusmod tem", "name": "Lorem ipsum dolor sit amet, consectetur adipisicing elit, sed do eiusmod tempor incididunt ut"}, "13": {"preparation": "Lorem ipsum dolor s", "name": "Lorem ipsum dolor sit amet, consectetur adipisicing elit, sed do eiusmod tempor incididunt ut la"}}, "lat": 16605.8181818182, "contact_name": "Lorem ipsum dolor sit amet, consectetu", "story": 12, "name": "Lorem ipsum dolor sit amet, consectetur adipisicing elit, sed do eiusmod tempor inci"}, "11": {"status": null, "city": "Lorem ipsum dolor sit amet, con", "updated": "2014-08-08 23:22:17.411000+00:00", "description": "Lorem ipsum dolor sit amet, consectetur adipisicing elit,", "zip": "Lorem ipsum dolor sit amet, consectetur adipisicing elit, sed do eiusmod tempor incididunt", "created": "2014-08-08 23:22:17.410000+00:00", "ext": {}, "location_description": "Lorem ipsum dolor sit amet, consectetur adipisicing elit, sed d", "long": -5821.36363636364, "email": "gkgbrwbbi@jusvbflumihespj.lks", "website": "http://npyan.bf", "phone": null, "state": "Lorem ipsum dolor sit amet, consectetur adipisic", "street": "Lorem ipsum dolor sit amet, consectetur adipisicing elit, sed do eiusmod", "products": {}, "lat": 8924.90909090909, "contact_name": "Lorem ipsum dolor s", "story": 95, "name": "Lorem ipsum dolor sit amet, consectetur adipisicing"}, "10": {"status": false, "city": "Lorem ipsum dolor sit amet, consectetur adipisicing elit, sed d", "updated": "2014-08-08 23:22:17.405000+00:00", "description": "Lorem ipsum dolor sit amet, consectetur adipisicing elit, s", "zip": "Lorem ipsum dolor sit amet, consectetur adipisicing elit", "created": "2014-08-08 23:22:17.405000+00:00", "ext": {}, "location_description": "Lorem ipsum dolor sit", "long": 41189.0909090909, "email": "preulifqhmgphehgq@gfunvr.xfl", "website": "http://umajy.ja", "phone": null, "state": "Lorem ipsum dolor sit amet, consectetur adipisicing elit, sed do eiusmod t", "street": "Lorem ipsum dolor sit am", "products": {"42": {"preparation": "Lorem ipsum dolor", "name": "Lorem ipsum dolor sit amet, consectetur adipisicing elit, sed do eiusmod tempor incididunt ut labore"}, "47": {"preparation": "Lorem ipsum dolor sit amet, consectetur adipisicing elit, sed do eiusmod tempor incidid", "name": "Lorem ipsum dolor sit amet, consectetur adipisicing elit, sed do eiusmod tempor incididunt ut la"}, "69": {"preparation": "Lorem ipsum dolor", "name": "Lorem ipsum dolor sit amet, consectetur adipisicing elit, sed do eiusmod tempor"}, "31": {"preparation": "Lorem ipsum dolor sit amet, consectetur adipisicing elit, sed do eiusmod tem", "name": "Lorem ipsum dol"}}, "lat": 40928.2727272727, "contact_name": "Lorem ipsum dolor sit amet, consectetur adipisicing elit, sed do eiusmod tempo", "story": 16, "name": "Lorem ipsum dolor sit amet, consectetur adipisicing elit, sed do eiusmod tempor incidid"}, "13": {"status": null, "city": "Lorem ipsum dolor sit amet, consectetur adipi", "updated": "2014-08-08 23:22:17.424000+00:00", "description": "Lorem ipsum dolor sit amet, consectetur a", "zip": "Lorem ipsum dolor", "created": "2014-08-08 23:22:17.424000+00:00", "ext": {}, "location_description": "Lorem ipsum dolor", "long": 2529.18181818182, "email": "splgupcmo@dybctyjcrsak.ntl", "website": "http://gccrnicwffgc.oq", "phone": null, "state": "Lorem ipsum dolor sit amet, consectetur adipisicing elit, sed do eiusmod tem", "street": "Lorem ipsum dolor sit amet, consectetur adipisicing elit, sed do eiusmod tempor in", "products": {"89": {"preparation": "Lorem ipsum dolor sit amet, consectetur adipisicing elit, sed do eiusmod tempor", "name": "Lorem ipsum dolor sit amet, consectetur adipisicing elit, sed do eiusmod tempor incididunt ut labore"}, "83": {"preparation": "Lorem ipsum dolor sit amet, consectetur adipisicing e", "name": "Lorem ipsum dolor sit amet, consectetur adipi"}}, "lat": -2359.27272727273, "contact_name": "Lorem ipsum dolor sit amet, consectetur adipisicing", "story": 63, "name": "Lorem ipsum dolor sit amet, consectetur adipisicing"}, "12": {"status": true, "city": "Lorem ipsum dol", "updated": "2014-08-08 23:22:17.418000+00:00", "description": "Lorem ipsum dolor sit amet, c", "zip": "Lorem ipsum dolor sit amet, consectetur adipisicing elit, sed do eiusmod tempor i", "created": "2014-08-08 23:22:17.417000+00:00", "ext": {}, "location_description": "Lorem ipsum dolor sit amet, consectetur adi", "long": 88650.0, "email": "nmelsumdoyasytbnjlelzo@op.kzc", "website": "http://ubtetmqfdk.fmq", "phone": null, "state": "Lorem ipsum dolor sit amet, co", "street": "Lorem ipsum dolor sit amet, con", "products": {}, "lat": -43577.8181818182, "contact_name": "Lorem ipsum dolor sit amet, consectetur adipisi", "story": 53, "name": "Lorem ipsum dolor sit"}, "15": {"status": null, "city": "Lorem ipsum dolor sit amet, consectetur adipisicing elit, sed do eiusmod te", "updated": "2014-08-08 23:22:17.437000+00:00", "description": "Lorem ipsum dolor sit amet, consectetur", "zip": "Lorem ipsum dolor sit amet, consectetur adipisicing elit, sed do eiu", "created": "2014-08-08 23:22:17.437000+00:00", "ext": {}, "location_description": "Lorem ipsum dolor", "long": 39168.0, "email": "weotocpgrmrstryvi@tkbr.lhu", "website": "http://extiuvcfifchzqo.kd", "phone": null, "state": "Lorem ipsum dolor sit amet, consectetur adipisicing elit, sed", "street": "Lorem ipsum dolor sit amet, consectetur adipisicing elit, sed do eius", "products": {"90": {"preparation": "Lorem ipsum dolor sit amet, consectetur adipisicing elit, sed", "name": "Lorem ipsum dolor sit amet, consectetur adipisicing elit"}}, "lat": -31797.7272727273, "contact_name": "Lorem ipsum dolor sit amet, consectetur adipisicing elit, sed do eiusmod tempor in", "story": 13, "name": "Lorem ipsum dolor sit amet, consectetur adipisic"}, "14": {"status": false, "city": "Lorem ipsum dolor sit amet, consectetur adipisicing elit, s", "updated": "2014-08-08 23:22:17.429000+00:00", "description": "Lorem ipsum dolor sit amet, consectetur adipisicing elit, sed do eiusmod tem", "zip": "Lorem ipsu", "created": "2014-08-08 23:22:17.429000+00:00", "ext": {}, "location_description": "Lorem ipsum dolor sit amet, conse", "long": 28839.0, "email": "efujsocrqetduolieoeecqi@eq.qyh", "website": "http://ljaufwfnjoam.hzz", "phone": null, "state": "Lorem ipsum dolor sit amet, consectetur adipisicing elit, sed do eiusmod tempor incid", "street": "Lorem ipsum dolor sit amet, consectetur adipisici", "products": {"87": {"preparation": "Lorem ipsum dolor sit amet, consectetur adipisicin", "name": "Lorem ipsum dolor sit amet, consectetur adipisicing elit, sed do eiusmod"}, "14": {"preparation": "Lorem ipsum dolor sit amet, consectetur adipisicing elit, sed do", "name": "Lorem ipsum dolor sit amet, consectetur adipisicing elit, sed do eiusmod tempor incididunt ut lab"}, "23": {"preparation": "Lorem ipsum dolor sit amet, consectetur adipisicing elit, sed do eiusmod", "name": "Lorem ipsum dolor sit amet, consectetur adipisicing elit, sed do eiusmod tempor incididunt ut labor"}}, "lat": 82512.9090909091, "contact_name": "Lorem ipsum dolor sit amet, consectetur adipisicing elit, sed", "story": 49, "name": "Lorem ipsum dolor sit amet, consectetur adipisicing elit, sed do eiusmod tempo"}, "17": {"status": null, "city": "Lorem ipsum dolor sit amet, consectetur adipisicing elit, sed do eiusmod tempor", "updated": "2014-08-08 23:22:17.450000+00:00", "description": "Lorem ipsum dolor sit amet, consectetur adipisic", "zip": "Lorem ipsum dolor sit amet, consectetur adipisicing elit, sed do eiu", "created": "2014-08-08 23:22:17.449000+00:00", "ext": {}, "location_description": "Lorem ipsum dolor sit amet", "long": 85730.2727272727, "email": "ctfwjxcyoj@jcxsgkfmhmvhmhx.sbx", "website": "http://pkwhnmvmuwzxap.pv", "phone": null, "state": "Lorem ipsum dolor sit amet, consectetur adipisicing elit, sed do eiusmod tempor incididunt ut lab", "street": "Lorem ipsum dolor sit amet, consectetur adipisicing elit, sed do eiusmod tempor incididunt ut labore", "products": {}, "lat": 77403.4545454545, "contact_name": "Lorem ipsum", "story": 14, "name": "Lorem ipsum dolor sit amet, consectetur adipisicin"}, "16": {"status": null, "city": "Lorem ipsum dolor sit amet", "updated": "2014-08-08 23:22:17.443000+00:00", "description": "Lorem ipsum dolor sit amet, consectetur adipisicing elit,", "zip": "Lorem ipsum dolor sit amet, consectetur adipisicing elit, sed do eiusmod tempor", "created": "2014-08-08 23:22:17.443000+00:00", "ext": {}, "location_description": "Lorem ipsum dolor sit amet, consectetur adipisicing elit, sed do eiusmod tempor incidid", "long": 92990.4545454545, "email": "mipkqtsxnrlzajh@shfuxju.lhj", "website": "http://tvhnpswk.pi", "phone": null, "state": "Lorem ipsum dolor", "street": "Lorem ipsum dolor sit amet, consectetur adipisicing elit, sed do eiusmo", "products": {"80": {"preparation": "Lorem ipsum dolor sit amet, consectetur adipisicing elit", "name": "Lorem ipsum dolor sit amet, consectetur adipisicing elit, sed do eiusmod"}, "11": {"preparation": "Lorem ipsum dolor sit amet", "name": "Lorem ipsum dolor sit amet, consectetur adipisicing elit, sed do eiusmod t"}}, "lat": 15217.0, "contact_name": "Lorem ipsum dolor sit amet, consectetur adipisicing elit, sed do eiusmod tempor incididunt ut labo", "story": 30, "name": "Lorem ipsum dolor sit amet, consectetur adipi"}, "19": {"status": null, "city": "Lorem ipsum dolor sit a", "updated": "2014-08-08 23:22:17.463000+00:00", "description": "Lorem ipsum dolor sit amet,", "zip": "Lorem ipsum dol", "created": "2014-08-08 23:22:17.463000+00:00", "ext": {}, "location_description": "Lorem ipsum dolor sit amet, consectetur adipisicing elit, sed do eiusmod tempor incididunt ut labo", "long": 5841.0, "email": "rxjkqfnhzlngxkrcoyjsyosq@w.mwo", "website": "http://xmiae.ykz", "phone": null, "state": "Lorem ipsum dolor sit amet, consectetur adipisicing elit, sed do eiusmod tempor incididunt ut labore", "street": "Lorem ipsum dolor sit amet, consectetur adip", "products": {}, "lat": -81223.3636363636, "contact_name": "Lorem ipsum dolor sit amet, consectet", "story": 67, "name": "Lorem ipsum dolor sit amet,"}, "18": {"status": false, "city": "Lorem ipsum dolor sit amet, consectetur adipisicing elit, sed do eiusmod tempor in", "updated": "2014-08-08 23:22:17.456000+00:00", "description": "Lorem ipsum dolor sit amet, consectetur", "zip": "Lorem ipsum dolor sit amet, consectetur adipisicing elit, sed do eiusmod tempo", "created": "2014-08-08 23:22:17.456000+00:00", "ext": {}, "location_description": "Lorem ipsum dolor sit amet, consectetur adipisicing", "long": -59021.3636363636, "email": "iruvcw@xnciuzmnbvumvcemj.msm", "website": "http://zmliffhh.cjd", "phone": null, "state": "Lorem ipsum dolor sit amet, consectetur adipisicing elit,", "street": "Lorem ipsum dolor sit amet, consectetur adipisicing e", "products": {}, "lat": -2973.09090909091, "contact_name": "Lorem ipsum dolor sit amet, consectetur adipisicing elit, sed do eiusmod tempor inc", "story": 85, "name": "Lorem ipsum do"}, "error": {"error_level": null, "error_status": false, "error_name": null, "error_text": null}, "48": {"status": null, "city": "Lorem ipsum dolor sit amet, consectetur", "updated": "2014-08-08 23:22:17.678000+00:00", "description": "Lorem ipsum dolor sit amet, consectetur adipisicing elit, sed do eiusmo", "zip": "Lorem ipsum dolor sit amet, consectetur adipisicing elit,", "created": "2014-08-08 23:22:17.678000+00:00", "ext": {}, "location_description": "Lorem ipsum d", "long": -58107.2727272727, "email": "xzzshqhenuxgxk@vybpwf.ood", "website": "http://sulqmhaw.de", "phone": null, "state": "Lorem ipsum dolor", "street": "Lorem ipsum dol", "products": {"77": {"preparation": "Lorem ipsum dolo", "name": "Lorem ipsum dolor sit amet, consectetur adipisicing elit, sed do eiusmod tempor incididunt ut"}}, "lat": -63314.9090909091, "contact_name": "Lorem ipsum dolor sit", "story": 8, "name": "Lorem ipsum dolor sit amet, consectetur adipisicing elit, sed"}, "49": {"status": null, "city": "Lorem ipsum dolor sit amet, consectetur adipisicing elit, sed do eius", "updated": "2014-08-08 23:22:17.685000+00:00", "description": "Lorem ipsum dolor sit amet, consectetur adipisicing elit, sed do eiusmod tempor incid", "zip": "Lorem ipsum dolor sit amet, consectet", "created": "2014-08-08 23:22:17.685000+00:00", "ext": {}, "location_description": "Lorem ipsum dolo", "long": 71854.2727272727, "email": "anjwjzmrgxtuiuwy@otorsund.lup", "website": "http://sahpaifnwqyxy.pfa", "phone": null, "state": "Lorem ipsum dolor sit amet, consectetur adipisicing elit, sed do eiusmod tempor incidid", "street": "Lorem ipsum dolor sit amet, consectetur ad", "products": {"79": {"preparation": "Lorem ipsum dolor sit amet, consectetur adipisicing elit, sed do eiusm", "name": "Lorem ipsum dolor sit amet, consectetur adipisicing elit, sed do eiusmod tempor"}}, "lat": 14120.9090909091, "contact_name": "Lorem ipsum dolor si", "story": 10, "name": "Lorem ipsum dolor sit amet, consectetur adipisicing elit, sed do"}, "46": {"status": null, "city": "Lorem ipsum dolor sit amet, cons", "updated": "2014-08-08 23:22:17.663000+00:00", "description": "Lorem ipsum dolor sit amet, consectetur adip", "zip": "Lorem ipsum dolor sit am", "created": "2014-08-08 23:22:17.663000+00:00", "ext": {}, "location_description": "Lorem ipsum dolor sit amet,", "long": 41189.3636363636, "email": "lwdafxdxafmb@sxxujoz.lzy", "website": "http://oitg.and", "phone": null, "state": "Lorem ipsum dolor sit amet, consectetur adipisicin", "street": "Lorem ipsum dolor sit amet, con", "products": {"10": {"preparation": "Lorem ipsum dolor sit amet, consectetur adipisicing elit, sed", "name": "Lorem ipsum dolor sit amet, consectetur adipisicing elit, sed do eiusmod tempor incididunt ut"}}, "lat": 44649.5454545455, "contact_name": "Lorem ipsum dolor sit amet, consectetur a", "story": 68, "name": "Lorem ipsum dolor sit amet, consectetur adipisicing elit, sed do eiusmod tempor incididunt ut"}, "47": {"status": null, "city": "Lorem ipsum dolor sit amet, consectetur adipisicing", "updated": "2014-08-08 23:22:17.671000+00:00", "description": "Lorem ipsum dolor sit amet, consectetu", "zip": "Lorem ipsum dolor sit amet, consectetur adipisicing elit, sed do eiusmod tem", "created": "2014-08-08 23:22:17.671000+00:00", "ext": {}, "location_description": "Lorem ipsum dolor sit amet, consectetur adipisicing elit, sed do eiusmod", "long": 13951.2727272727, "email": "wuntpyayxrowjybzrgdm@ao.hkj", "website": "http://jcatnv.ilo", "phone": null, "state": "Lorem ipsum dolor sit", "street": "Lorem ipsum dolor", "products": {}, "lat": 15128.2727272727, "contact_name": "Lorem ipsum dolor sit amet, consectetur adipisicing elit, sed do eiusmod tempor", "story": 68, "name": "Lorem ipsum dolor sit amet, consectetur adipis"}, "44": {"status": null, "city": "Lorem ipsum dolor sit ame", "updated": "2014-08-08 23:22:17.649000+00:00", "description": "Lorem ipsum dolor", "zip": "Lorem ipsum dolor sit amet, consectetur adipisicing elit, sed do ei", "created": "2014-08-08 23:22:17.649000+00:00", "ext": {}, "location_description": "Lorem ipsum dolor sit amet, consectetur ad", "long": -67757.0, "email": "uos@uaonnlqxfugboo.qhk", "website": "http://bavjdkgorgte.us", "phone": null, "state": "Lorem ipsum dolor sit amet, consectetur adipisicing elit, sed do eiusmod tempor incididunt", "street": "Lorem ipsum dolor sit", "products": {"29": {"preparation": "Lorem ipsum dolor sit amet, co", "name": "Lorem ipsum dolor sit amet, consectetur adipisicing elit, sed do eiusmod"}}, "lat": 99759.8181818182, "contact_name": "Lorem ipsum dolor sit amet, consectetur adipisicing elit, s", "story": 9, "name": "Lorem ipsum dolor sit amet, consectetur"}, "45": {"status": true, "city": "Lorem ipsum dolor sit amet, consectetur adipisicing elit, sed do eiusmod tempor incididun", "updated": "2014-08-08 23:22:17.656000+00:00", "description": "Lorem ipsum dolor sit amet, consectetur adipis", "zip": "Lorem ipsum dolor sit amet, consectetur adipisicing", "created": "2014-08-08 23:22:17.656000+00:00", "ext": {}, "location_description": "Lorem ipsum dolor sit amet, consectetur adipisicing elit, sed do eius", "long": 19941.8181818182, "email": "boaz@nxpyjfvpttjqou.zpg", "website": "http://xlly.cko", "phone": null, "state": "Lorem ipsum dolor sit amet, consectetur adipisicing elit, sed do eiusmod tempor incidi", "street": "Lorem ipsum dolor sit amet, consectetur adipisicing elit, sed do eiusm", "products": {}, "lat": -57819.5454545455, "contact_name": "Lorem ipsum dolor sit amet, consectetur adipisicing elit, sed do eiusmod tempor", "story": 62, "name": "Lorem ipsum dolor sit amet, consectetur"}, "42": {"status": true, "city": "Lorem ipsum dolor sit amet, co", "updated": "2014-08-08 23:22:17.633000+00:00", "description": "Lorem ipsum dolor sit", "zip": "Lorem ipsum dolor sit amet, consectetur adipisicin", "created": "2014-08-08 23:22:17.633000+00:00", "ext": {}, "location_description": "Lorem ipsum dolor", "long": 77188.5454545455, "email": "dtfwvtbmbfaqzmro@qvkj.uhd", "website": "http://fllkplgb.xnw", "phone": null, "state": "Lorem ipsum dolor sit amet,", "street": "Lorem ipsum dolor sit amet, consectetur adipisicin", "products": {"37": {"preparation": "Lorem ipsum dolor sit", "name": "Lorem ipsum do"}}, "lat": -77228.4545454545, "contact_name": "Lorem ipsum dolor sit amet, consectetur adipisi", "story": 51, "name": "Lorem ipsum dolor sit amet, consectetur adipisicing elit, sed do eiusmod tempor"}, "43": {"status": false, "city": "Lorem ipsum dolor sit amet, consectetur adipisicing elit, se", "updated": "2014-08-08 23:22:17.642000+00:00", "description": "Lorem ipsum dolor sit amet, conse", "zip": "Lorem ipsum dolor sit amet, consectetur adipisicing", "created": "2014-08-08 23:22:17.642000+00:00", "ext": {}, "location_description": "Lorem ipsum dolor sit amet, consectetur adipisicing elit, sed do eiusmod tempor inc", "long": 54069.0, "email": "fcyhmbzdrctg@aqwvaxf.mcp", "website": "http://urvzrzdbut.wx", "phone": null, "state": "Lorem ipsum dolor sit am", "street": "Lorem ipsum", "products": {"25": {"preparation": "Lorem ipsum dolor sit amet, consectetur adi", "name": "Lorem ipsum dolor sit amet,"}}, "lat": -16029.1818181818, "contact_name": "Lorem ipsum dolor sit amet, consectetur adipisicing elit, sed", "story": 34, "name": "Lorem ipsum dolor sit amet, consectetur adipisicing elit, sed do eius"}, "40": {"status": true, "city": "Lorem ipsum dolor sit amet, consectetur adipisicing elit, sed do eiusmod tempor", "updated": "2014-08-08 23:22:17.620000+00:00", "description": "Lorem ipsum dolor sit amet, consectetur adipisicing elit, sed do eiusmo", "zip": "Lorem ipsum dolor sit amet, consectetur adipisicing elit, sed do eiusmod tempor incididunt ut", "created": "2014-08-08 23:22:17.620000+00:00", "ext": {}, "location_description": "Lorem ipsum dolor", "long": -520.363636363636, "email": "qlhybhqcndww@vmnecydx.toe", "website": "http://rssupfivwfi.tnx", "phone": null, "state": "Lorem ipsum dolor sit amet, consectetur adipisicing elit", "street": "Lorem ipsum dolor sit amet, consecte", "products": {"32": {"preparation": "Lorem ipsum dolor sit amet, consectetur adipisicing e", "name": "Lorem ipsum dolor sit amet, consectetur adipisicing elit, sed do eiusmod tempor"}, "2": {"preparation": "Lorem ipsum dolor sit amet, consectetur adipisicing elit, sed do eiusmod tempor in", "name": "Lorem ipsum dolor sit amet, consectetur adipisicing elit, sed do eiusmod tempor incididunt ut"}}, "lat": -61745.3636363636, "contact_name": "Lorem ipsum dolor sit amet, consectetur adipisicing el", "story": 36, "name": "Lorem ipsum d"}, "41": {"status": false, "city": "Lorem ipsum dolor sit amet, consectetur adipisicing e", "updated": "2014-08-08 23:22:17.627000+00:00", "description": "Lorem ipsum dolor sit amet, consectetur adipisicing elit, sed do eiusmod tempor incididunt", "zip": "Lorem ipsum dolor sit amet, consectetur adipisicing elit, sed do eiusmod tempor incididunt ut labor", "created": "2014-08-08 23:22:17.627000+00:00", "ext": {}, "location_description": "Lorem ipsum dolor sit amet, consectetur adipisicing elit, sed do eiusmod tempor incididunt ut labo", "long": 61822.2727272727, "email": "wspbl@bbaizwadurdr.ina", "website": "http://ba.mg", "phone": null, "state": "Lorem ipsum dolor sit am", "street": "Lorem ipsum dolor sit amet, consectetur adipisicing elit, sed do eius", "products": {}, "lat": -95874.7272727273, "contact_name": "Lorem ipsum dolor sit amet, consectetur adipisicing elit, sed do eiusmod tempor inc", "story": 64, "name": "Lorem ipsum dolor sit amet, consectetur adipisicing elit, sed do eiusmod tempo"}, "1": {"status": true, "city": "Lorem ipsum dolor sit", "updated": "2014-08-08 23:22:17.326000+00:00", "description": "Lorem ipsum dolor sit amet, consectetur adipisicing elit, sed do eiusmod te", "zip": "Lorem ipsum dolor sit amet, consectetur adipisicin", "created": "2014-08-08 23:22:17.326000+00:00", "ext": {}, "location_description": "Lorem ipsum dolor sit amet, consectetur adipisicing elit, sed do eiusmod t", "long": -77596.9090909091, "email": "dryqupa@jkjdudbobszy.ajd", "website": "http://yckckeh.zm", "phone": null, "state": "Lorem ipsum dolor sit amet, consectetur adipisicing elit, sed do eiusmod tempo", "street": "Lorem ipsum dolor sit amet, consectetur a", "products": {"41": {"preparation": "Lorem ipsum dolor sit amet,", "name": "Lorem ipsum dolor sit amet, consectetur adipisicing elit, sed do eiusmod tempor incididunt ut labor"}}, "lat": 66959.0909090909, "contact_name": "Lorem ipsum dolor sit amet, consectetur adipisicing elit, sed do eiusmod", "story": 8, "name": "Lorem ipsum dolor sit amet, consectetur adi"}, "5": {"status": false, "city": "Lorem ipsum dol", "updated": "2014-08-08 23:22:17.366000+00:00", "description": "Lorem ipsum dolor si", "zip": "Lorem ipsum dolor sit amet, consectetur adipisicing elit,", "created": "2014-08-08 23:22:17.366000+00:00", "ext": {}, "location_description": "Lorem ipsum dolor sit amet, consectetur adipisicing e", "long": -39604.4545454545, "email": "lyljh@bgj.wtm", "website": "http://nl.ay", "phone": null, "state": "Lorem ipsum dolor sit", "street": "Lorem ipsum dolor sit amet, consectetur adipisicing elit, sed do ei", "products": {"17": {"preparation": "Lorem ipsum dolor si", "name": "Lorem ipsum dolor sit amet,"}, "74": {"preparation": "Lorem ipsum dolor sit amet, consectetur adipisicing elit, sed do eiusmod tempor incididunt ut lab", "name": "Lorem ipsum dolor sit a"}}, "lat": -78443.3636363636, "contact_name": "Lorem ipsum dolor sit amet, consectetur adipisicing elit, sed do eiusmod tempor incididunt ut labo", "story": 82, "name": "Lorem ipsum dolor sit amet, consectetur adipisicing"}, "9": {"status": false, "city": "Lorem ipsum dolor sit amet, con", "updated": "2014-08-08 23:22:17.398000+00:00", "description": "Lorem ipsum dolor sit amet, consectetur adipisicing elit, sed do eiusmod", "zip": "Lorem ipsum dolor sit amet, consectetur adipisicing elit, sed do eiusmod", "created": "2014-08-08 23:22:17.398000+00:00", "ext": {}, "location_description": "Lorem ipsum dolor sit amet, consectetur adipisicing elit, sed do ei", "long": 16668.5454545455, "email": "ntxjumlmezteamrpy@wsutimd.ejl", "website": "http://zy.tx", "phone": null, "state": "Lorem ipsum dolor sit amet, consectetur adipisicing elit, s", "street": "Lorem ipsum dolor sit amet, consectetur adipisicing elit,", "products": {"16": {"preparation": "Lorem ipsum dolor sit amet, consectetur adipisicing eli", "name": "Lorem ipsum dolor sit amet, consectetur adipisicing"}, "96": {"preparation": "Lorem ipsum dolor sit amet, consectetur adipisicin", "name": "Lorem ipsum dolor sit"}}, "lat": -57970.8181818182, "contact_name": "Lorem ipsum dolor sit amet, consectetur adipisicing elit, sed do eiusmod tempor i", "story": 83, "name": "Lorem ipsum dolor sit am"}, "77": {"status": null, "city": "Lorem ipsum dolor sit amet, consectetur adipisicing elit, sed do eiusmod tempor incididunt", "updated": "2014-08-08 23:22:17.895000+00:00", "description": "Lorem ipsum dolor sit amet, consectetur", "zip": "Lorem ipsum dolor sit amet, consectetur adipisicing elit, sed do eiusm", "created": "2014-08-08 23:22:17.895000+00:00", "ext": {}, "location_description": "Lorem ipsu", "long": -71875.5454545455, "email": "snelfwldibzoxgyrcbpjvvd@a.rpf", "website": "http://u.ilx", "phone": null, "state": "Lorem ipsum dolor sit amet, consectetur adipisicing elit, sed do e", "street": "Lorem ipsum dolor sit am", "products": {}, "lat": 12385.4545454545, "contact_name": "Lorem ipsum dolor sit amet, consectetur adipisicing elit, sed do eiusmod tempor incidi", "story": 45, "name": "Lorem ipsum dolor sit amet, consectetur adipisicing elit, sed do eiusmod t"}, "76": {"status": null, "city": "Lorem ipsum dolor sit amet, consectetur adipi", "updated": "2014-08-08 23:22:17.887000+00:00", "description": "Lorem ipsum dolor sit amet, consectetur adipisicing elit, sed do eiusmod tempor incididunt ut la", "zip": "Lorem ipsum dolor sit amet, consectetur adipisicing elit,", "created": "2014-08-08 23:22:17.887000+00:00", "ext": {}, "location_description": "Lorem ipsum dolor sit amet, consectetur adipisicing elit, sed do eius", "long": -3714.45454545455, "email": "uuvymnxsenyf@pdcqklasrmrf.ioc", "website": "http://oa.tur", "phone": null, "state": "Lorem ipsum dolor sit amet, consectetur adipisic", "street": "Lorem ipsum dolor sit amet, consec", "products": {"65": {"preparation": "Lorem ipsum dolor sit amet", "name": "Lorem ipsum dolor sit amet, consectetur adipisicing elit, sed do eiusmod tempor incididunt ut labor"}}, "lat": 862.636363636364, "contact_name": "Lorem ipsum dolor sit amet, consectetur adipisicing elit, sed do eiusmod tempor incidid", "story": 24, "name": "Lorem ipsum dolor sit amet, consectetur adipisicing elit, sed"}, "75": {"status": null, "city": "Lorem ipsum dolor sit amet, consectetur adipisicing elit,", "updated": "2014-08-08 23:22:17.879000+00:00", "description": "Lorem ipsum dolor sit amet, consectetur adipisicing elit, sed do eiusmod tempor incidi", "zip": "Lorem ipsum dolor sit amet, consectetur adipisicing elit, sed do eiusmod tempor incididunt ut l", "created": "2014-08-08 23:22:17.879000+00:00", "ext": {}, "location_description": "Lorem ipsum dolor sit amet, consectet", "long": -20194.7272727273, "email": "jvupyvk@qzuvqos.kvh", "website": "http://dqcn.erf", "phone": null, "state": "Lorem ipsum dolor sit amet, consectetur adi", "street": "Lorem ipsum dolor sit amet, consectetur adipisicing el", "products": {}, "lat": -71233.0, "contact_name": "Lorem ipsum dolor sit amet, consectetur adipisicing e", "story": 51, "name": "Lorem ipsum dolor sit amet, consectetur adipisi"}, "74": {"status": true, "city": "Lorem ipsum dolor sit amet, consectetur adipisicing elit, sed do eiusmod tempor", "updated": "2014-08-08 23:22:17.871000+00:00", "description": "Lorem ipsum dolor sit amet, consectetur adipisicing elit, se", "zip": "Lorem ipsum dolor si", "created": "2014-08-08 23:22:17.871000+00:00", "ext": {}, "location_description": "Lorem ipsum dolor sit amet,", "long": 69798.9090909091, "email": "hgyirhh@zpstvpjxqvwtxe.rmu", "website": "http://dgvdyneeaaosazv.gi", "phone": null, "state": "Lorem ipsum dolor sit amet, consectetur adipisicing elit, sed do eiusmod tem", "street": "Lorem ipsum dolor sit amet, consectet", "products": {"39": {"preparation": "Lorem ipsum dolor sit amet, consectetur adipisicing elit,", "name": "Lorem ipsum dolor sit amet, consectetur adipisicing elit, sed do eiusmod tempor incididunt ut"}}, "lat": -51472.0, "contact_name": "Lorem ipsum dolor sit amet, consectetur adipisicing elit, sed do eiusmod tempor incidid", "story": 67, "name": "Lorem ipsum dolor sit amet, consectetur adipis"}, "73": {"status": true, "city": "Lorem ipsum dolor sit amet, consectetur adipisicing elit, sed do eiusmod tempor incididunt ut lab", "updated": "2014-08-08 23:22:17.864000+00:00", "description": "Lorem ipsum dolor sit amet, consectetu", "zip": "Lorem ipsum dolor sit amet", "created": "2014-08-08 23:22:17.864000+00:00", "ext": {}, "location_description": "Lorem ipsum dolor sit amet, consectetur adipisicing elit, sed do", "long": 10329.8181818182, "email": "fwt@qqxvqxcvlnyaollcvnmmvb.ztj", "website": "http://crosdurvsvcjz.cgr", "phone": null, "state": "Lorem ipsum dolor sit amet, consectetur adipisicing", "street": "Lorem ipsum dolor sit amet, consectetur adipisicing elit, sed do eiusmod tem", "products": {"45": {"preparation": "Lorem ipsum dolor sit amet, consectetur adipisicing elit, sed do eiusmod tempor in", "name": "Lorem ipsum dolor sit amet, consectetur adipisicing elit, sed do eiusmod tempor incididunt ut la"}, "54": {"preparation": "Lorem ipsum dolor sit amet, consectetur adipisicing elit, sed", "name": "Lorem ipsum dolor sit"}}, "lat": -32199.7272727273, "contact_name": "Lorem ipsum dolor sit amet, consectetur adipisicing elit, sed do eiusmod", "story": 24, "name": "Lorem ipsum dolor sit amet, consectetur adipisicing elit, sed do eiusmod te"}, "72": {"status": false, "city": "Lorem ipsum dolor sit amet, c", "updated": "2014-08-08 23:22:17.857000+00:00", "description": "Lorem ipsum dolor sit a", "zip": "Lorem ipsum", "created": "2014-08-08 23:22:17.856000+00:00", "ext": {}, "location_description": "Lorem ipsum dolor sit amet, cons", "long": -84339.9090909091, "email": "k@d.dis", "website": "http://jvcvnbosudobbq.dti", "phone": null, "state": "Lorem ipsum dolor sit amet, consectetur adipisicing elit, sed do eiusmod tempor inc", "street": "Lorem ipsum dolor sit amet, consectetur adipisicing e", "products": {"8": {"preparation": "Lorem ipsum dolor sit am", "name": "Lorem ipsum dolor sit amet, consectetur adipisicing elit, s"}}, "lat": 45114.7272727273, "contact_name": "Lorem ipsum dolor sit am", "story": 41, "name": "Lorem ipsum dolor sit amet, con"}, "71": {"status": null, "city": "Lorem ipsum dolor sit", "updated": "2014-08-08 23:22:17.848000+00:00", "description": "Lorem ipsum dolor sit amet, consect", "zip": "Lorem ipsum dolor sit amet, consectetur adipisicing elit, sed do eiusmod tempor incididunt ut lab", "created": "2014-08-08 23:22:17.848000+00:00", "ext": {}, "location_description": "Lorem ipsum dolor sit amet, consecte", "long": 46257.8181818182, "email": "j@hctkqsgbityfmvnb.tpz", "website": "http://edqw.jw", "phone": null, "state": "Lorem ipsum dolor sit amet, consectetur adipisicing el", "street": "Lorem ipsum dolor sit amet, consectet", "products": {"8": {"preparation": "Lorem ipsum dolor sit am", "name": "Lorem ipsum dolor sit amet, consectetur adipisicing elit, s"}}, "lat": -51212.1818181818, "contact_name": "Lorem ipsum dolor sit amet, consectetur adipisicing elit, se", "story": 63, "name": "Lorem ipsum"}, "70": {"status": false, "city": "Lorem ipsum dolor sit amet, consectetur adipisicing elit, sed do", "updated": "2014-08-08 23:22:17.839000+00:00", "description": "Lorem ipsum dolor sit amet, consec", "zip": "Lorem ipsum dolor sit amet, consectetur adipis", "created": "2014-08-08 23:22:17.839000+00:00", "ext": {}, "location_description": "Lorem ipsum dolor", "long": -86542.2727272727, "email": "onchxhsfuygxmutjirjhx@mmq.urt", "website": "http://lphmqq.iqo", "phone": null, "state": "Lorem ipsum dolor sit amet, consectetu", "street": "Lorem ipsum dolor sit amet, consectetur adipisicing elit, sed do eiu", "products": {"99": {"preparation": "Lorem ipsum dolor sit amet, consectetur adipisicing elit, sed", "name": "Lorem ipsum dol"}}, "lat": -38311.9090909091, "contact_name": "Lorem ipsum dolor sit amet, consectetur adipis", "story": 28, "name": "Lorem ipsum dolor sit amet, consectetur adipisicing elit, sed do eiusmod tempo"}, "79": {"status": null, "city": "Lorem ipsum dolor sit amet, consectetur adipisicing elit, sed do", "updated": "2014-08-08 23:22:17.916000+00:00", "description": "Lorem ipsum dolor sit amet, consectetur adipisicing elit, sed do eiusmod tempor incididun", "zip": "Lorem ipsum dolor sit amet, consecte", "created": "2014-08-08 23:22:17.916000+00:00", "ext": {}, "location_description": "Lorem ipsum dolor sit amet, consectetur adipisicing elit, sed do e", "long": -83328.9090909091, "email": "rlgcfjjsneloaum@rqphdijb.eiu", "website": "http://agfonhhnvqe.iq", "phone": null, "state": "Lorem ipsum dolor sit amet, consectetur adipisicing elit, sed do eiusmod tempor incididunt", "street": "Lorem ipsum dolor sit amet, consectetur a", "products": {"49": {"preparation": "Lorem ipsum dolor sit amet, consectetur adipisicing elit, sed do eiusmod tempor incididunt ut labore", "name": "Lorem ipsum dolor sit amet,"}, "83": {"preparation": "Lorem ipsum dolor sit amet, consectetur adipisicing e", "name": "Lorem ipsum dolor sit amet, consectetur adipi"}}, "lat": 71094.3636363636, "contact_name": "Lorem ipsu", "story": 77, "name": "Lorem ipsum dolor sit amet, consectetur adi"}, "78": {"status": true, "city": "Lorem ipsum dolor sit amet, consectetur adipisicing elit, sed", "updated": "2014-08-08 23:22:17.907000+00:00", "description": "Lorem ipsum dolor sit amet, consectetur adipisicing elit, sed do eiu", "zip": "Lorem ipsum dolor sit amet, consectetur adipisicing elit, se", "created": "2014-08-08 23:22:17.906000+00:00", "ext": {}, "location_description": "Lorem ipsum dolor sit amet, con", "long": 17099.6363636364, "email": "ysettooaouilnltoigiaei@gzt.kac", "website": "http://wumjudmz.npn", "phone": null, "state": "Lorem ipsum dolor sit amet, consectetur adipisicing elit, sed do eiusmod tempor incididunt ut labore", "street": "Lorem ipsum dolor sit amet, consectetur adipisicing elit, sed do eiusm", "products": {"60": {"preparation": "Lorem ipsum dolor sit amet, consectetur adipisicin", "name": "Lorem ipsum dolor sit amet, consectetur adipisicing elit, sed do eiusmod tempor incididunt ut labor"}, "53": {"preparation": "Lorem ipsum dolor sit amet, consectetur adipisicing elit, sed do e", "name": "Lorem ipsum dolor sit amet"}}, "lat": -51141.7272727273, "contact_name": "Lorem ipsum dolor sit ame", "story": 81, "name": "Lorem ipsum dolor sit amet, consectetur adipisicing elit, sed do eiusmod t"}}